FSA,POSTAL_CODE,PLACE_NAME,PROV,AREA_TYPE,LATITUDE,LONGITUDE
B0A,B0A1A0,Birch Grove,NS,Rural,46.113095,-59.96457
B0A,B0A1B0,Cfs Sydney,NS,Rural,46.16403,-60.156973
B0A,B0A1C0,Christmas Island,NS,Rural,45.850576,-60.446479
B0A,B0A1E0,Dominion,NS,Rural,46.213897,-60.007375
B0A,B0A1G0,Donkin,NS,Rural,46.221942,-60.101122
B0A,B0A1H0,East Bay,NS,Rural,45.850577,-60.446479
B0A,B0A1J0,Eskasoni,NS,Rural,45.929189,-60.660802
B0A,B0A1K0,Gabarus,NS,Rural,45.814456,-60.182678
B0A,B0A1L0,Iona,NS,Rural,45.965833,-60.89293
B0A,B0A1M0,Louisbourg,NS,Rural,45.921074,-59.96616
B0A,B0A1N0,Main-A-Dieu,NS,Rural,45.961774,-59.946542
B0A,B0A1P0,Marion Bridge,NS,Rural,45.931448,-60.211221
B0A,B0A1R0,New Victoria,NS,Rural,46.269191,-60.135423
B0A,B0A1S0,North Fourchu,NS,Rural,45.672302,-60.474297
B0A,B0A1T0,Port Morien,NS,Rural,46.159243,-59.85799
B0A,B0A1V0,Reserve Mines,NS,Rural,46.18242,-60.014026
B0A,B0A1W0,Sydney Forks,NS,Rural,46.056194,-60.320368
B0C,B0C1A0,Alder Point,NS,Rural,46.281142,-60.28252
B0C,B0C1A1,Cape Smokey,NS,Rural,46.534346,-60.561414
B0C,B0C1B0,Bras D'Or,NS,Rural,46.319568,-60.45193
B0C,B0C1C0,Cape North,NS,Rural,46.907548,-60.395097
B0C,B0C1E0,Capstick,NS,Rural,46.970308,-60.436072
B0C,B0C1G0,Dingwall,NS,Rural,46.896896,-60.471233
B0C,B0C1H0,Englishtown,NS,Rural,46.259496,-60.539781
B0C,B0C1J0,Florence,NS,Rural,46.25353,-60.262612
B0C,B0C1K0,Ingonish,NS,Rural,46.695635,-60.396464
B0C,B0C1L0,Ingonish Beach,NS,Rural,46.613127,-60.507454
B0C,B0C1M0,Keltic Lodge,NS,Rural,46.610777,-60.42396
B0C,B0C1N0,Neils Harbour,NS,Rural,46.762745,-60.343878
B0C,B0C1P0,New Haven,NS,Rural,46.808812,-60.306677
B0C,B0C1R0,St Margaret Village,NS,Rural,46.970309,-60.436072
B0E,B0E1A0,Arichat,NS,Rural,45.514793,-60.966046
B0E,B0E1B0,Baddeck,NS,Rural,46.234036,-61.299174
B0E,B0E1C0,Belle Cote,NS,Rural,46.440054,-61.09231
B0E,B0E1C8,Inverness,NS,Rural,46.1793911,-61.2038641
B0E,B0E1E0,Belle Marche,NS,Rural,46.635873,-60.955613
B0E,B0E1G0,Cap Lemoyne,NS,Rural,46.419873,-61.045641
B0E,B0E1H0,Cheticamp,NS,Rural,46.506849,-61.025641
B0E,B0E1J0,Cleveland,NS,Rural,45.629385,-61.14693
B0E,B0E1K0,D'Escousse,NS,Rural,45.53269,-61.010749
B0E,B0E1L0,Grand Etang,NS,Rural,46.50685,-61.025641
B0E,B0E1M0,Grand River,NS,Rural,45.539328,-60.700551
B0E,B0E1N0,Inverness,NS,Rural,46.207819,-61.185472
B0E,B0E1P0,Judique,NS,Rural,45.982043,-61.529185
B0E,B0E1R0,La Pointe,NS,Rural,46.514733,-61.038599
B0E,B0E1S0,L'Ardoise,NS,Rural,45.612265,-60.767692
B0E,B0E1T0,Little Narrows,NS,Rural,45.974227,-60.983498
B0E,B0E1V0,Louisdale,NS,Rural,45.629386,-61.14693
B0E,B0E1W0,Lower L'Ardoise,NS,Rural,45.580256,-60.736738
B0E,B0E1X0,Mabou,NS,Rural,46.060943,-61.2045
B0E,B0E1Y0,Margaree,NS,Rural,46.440055,-61.09231
B0E,B0E1Z0,Margaree Centre,NS,Rural,46.326145,-61.038534
B0E,B0E2A0,Margaree Forks,NS,Rural,46.314662,-61.176509
B0E,B0E2A1,Inverness,NS,Rural,46.179391,-61.203864
B0E,B0E2B0,Margaree Harbour,NS,Rural,46.034129,-61.521456
B0E,B0E2C0,Margaree Valley,NS,Rural,46.03413,-61.521456
B0E,B0E2E0,Middle River,NS,Rural,46.261633,-60.789044
B0E,B0E2G0,Mulgrave,NS,Rural,45.450336,-61.386797
B0E,B0E2H0,Margaree,NS,Rural,46.444435,-61.092484
B0E,B0E2J0,North River Bridge,NS,Rural,46.261634,-60.789044
B0E,B0E2K0,Orangedale,NS,Rural,45.707891,-61.170629
B0E,B0E2L0,Petit De Grat,NS,Rural,45.446991,-60.939875
B0E,B0E2M0,Petit Etang,NS,Rural,46.642589,-60.992644
B0E,B0E2N0,Plateau,NS,Rural,46.569241,-60.996702
B0E,B0E2P0,Pleasant Bay,NS,Rural,46.68081,-60.81327
B0E,B0E2R0,Point Cross,NS,Rural,46.514734,-61.038599
B0E,B0E2S0,Point Tupper,NS,Rural,45.58011,-61.280143
B0E,B0E2T0,Port Hastings,NS,Rural,45.653129,-61.383773
B0E,B0E2V0,Port Hawkesbury,NS,Rural,45.614351,-61.350731
B0E,B0E2W0,Port Hood,NS,Rural,45.716593,-60.863531
B0E,B0E2W1,Strathlorne,NS,Rural,46.220376,-61.084658
B0E,B0E2X0,River Bourgeois,NS,Rural,45.655705,-61.019888
B0E,B0E2Y0,River Denys,NS,Rural,45.804503,-61.012528
B0E,B0E2Z0,Robins,NS,Rural,45.446992,-60.939875
B0E,B0E3A0,La Pointe,NS,Rural,46.505051,-61.036834
B0E,B0E3B0,St Peters,NS,Rural,45.620463,-60.957559
B0E,B0E3C0,Sampson Cove,NS,Rural,45.446993,-60.939875
B0E,B0E3E0,Scotsville,NS,Rural,46.145952,-61.189362
B0E,B0E3G0,South Haven,NS,Rural,46.472813,-60.558308
B0E,B0E3H0,South West Margaree,NS,Rural,46.174083,-61.12252
B0E,B0E3J0,West Arichat,NS,Rural,45.53199,-61.131547
B0E,B0E3K0,West Bay,NS,Rural,45.616866,-61.215996
B0E,B0E3L0,West Bay Road,NS,Rural,45.690681,-61.45232
B0E,B0E3M0,Whycocomagh,NS,Rural,46.081461,-60.965235
B0E,B0E3N0,Wagmatcook,NS,Rural,46.073297,-60.913243
B0H,B0H1A0,Afton Station,NS,Rural,45.60221,-61.744775
B0H,B0H1B0,Antigonish,NS,Rural,45.621419,-62.000963
B0H,B0H1C0,Antigonish University,NS,Rural,45.618799,-61.995184
B0H,B0H1E0,Aspen,NS,Rural,45.193705,-62.026841
B0H,B0H1E2,Boylston,NS,Rural,45.500317,-61.602811
B0H,B0H1G0,Boylston,NS,Rural,45.500348,-61.694007
B0H,B0H1H0,Canso,NS,Rural,45.332859,-60.985367
B0H,B0H1J0,Cross Roads Country Harbour,NS,Rural,45.250988,-61.738273
B0H,B0H1K0,Frankville,NS,Rural,45.656226,-61.556598
B0H,B0H1L0,Goldboro,NS,Rural,45.208785,-61.64963
B0H,B0H1M0,Goshen,NS,Rural,45.404412,-61.939049
B0H,B0H1N0,Guysborough,NS,Rural,45.320843000000004,-61.132467
B0H,B0H1P0,Havre Boucher,NS,Rural,45.685603,-61.528604
B0H,B0H1R0,Heatherton,NS,Rural,45.535195,-61.826747
B0H,B0H1S0,Isaacs Harbour,NS,Rural,45.208786,-61.64963
B0H,B0H1T0,Larrys River,NS,Rural,45.31573,-61.175579
B0H,B0H1V0,Little Dover,NS,Rural,45.24995,-61.065203
B0H,B0H1W0,Monastery,NS,Rural,45.605937,-61.66014
B0H,B0H1X0,St Andrews,NS,Rural,45.493148,-61.776903
B0J,B0J1A0,Bickerton West,NS,Rural,45.14583,-61.810819
B0J,B0J1A1,Halifax,NS,Rural,44.744868,-63.281808
B0J,B0J1B0,Black Point,NS,Rural,44.652274,-63.999655
B0J,B0J1C0,Blandford,NS,Rural,44.520476,-64.067808
B0J,B0J1E0,Block House,NS,Rural,44.420909,-64.474461
B0J,B0J1G0,Boutiliers Point,NS,Rural,44.638995,-63.976581
B0J,B0J1H0,Brooklyn,NS,Rural,44.055473,-64.710851
B0J,B0J1J0,Chester,NS,Rural,44.560562,-64.225079
B0J,B0J1K0,Chester Basin,NS,Rural,44.766728,-62.896814
B0J,B0J1L0,Eastern Passage,NS,Rural,44.620375,-63.498379
B0J,B0J1M0,Fishermans Harbour,NS,Rural,45.145831,-61.810819
B0J,B0J1N0,Head Of Chezzetcook,NS,Rural,44.375846,-64.326325
B0J,B0J1P0,Head Of Jeddore,NS,Rural,44.698934,-63.039794
B0J,B0J1R0,Head Of St Margarets Bay,NS,Rural,44.669474,-63.915495
B0J,B0J1S0,Herring Cove,NS,Rural,44.570951,-63.565888
B0J,B0J1T0,Hubbards,NS,Rural,44.643217,-64.05186
B0J,B0J1V0,Italy Cross,NS,Rural,44.188042,-64.603147
B0J,B0J1W0,Jeddore Oyster Ponds,NS,Rural,44.807722,-62.910248
B0J,B0J1X0,Ketch Harbour,NS,Rural,44.491775,-63.545371
B0J,B0J1Y0,Lake Charlotte,NS,Rural,44.7843,-62.845748
B0J,B0J1Z0,Lakeside,NS,Rural,44.634348,-63.696813
B0J,B0J1Z1,Lakeside,NS,Rural,44.641158,-63.7107
B0J,B0J2A0,Liscomb,NS,Rural,45.033281,-62.170002
B0J,B0J2A1,Halifax,NS,Rural,44.744868,-63.281808
B0J,B0J2B0,Little Tancook,NS,Rural,44.436101,-64.137455
B0J,B0J2C0,Bridgewater,NS,Rural,44.37635,-64.309889
B0J,B0J2E0,Mahone Bay,NS,Rural,44.308292,-64.307402
B0J,B0J2G0,Marie Joseph,NS,Rural,45.033282,-62.170002
B0J,B0J2H0,Mill Village,NS,Rural,44.630383,-63.515062
B0J,B0J2J0,Mooseland,NS,Rural,44.88785,-62.849337
B0J,B0J2K0,Mosers River,NS,Rural,44.973155,-62.155062
B0J,B0J2L0,Musquodoboit Harbour,NS,Rural,44.787808,-63.148726
B0J,B0J2M0,New Ross,NS,Rural,44.706544,-63.916747
B0J,B0J2N0,Peggys Cove,NS,Rural,44.491956,-63.905915
B0J,B0J2P0,Petite-Riviere-Bridge,NS,Rural,44.232526,-64.485852
B0J,B0J2R0,Port Dufferin,NS,Rural,44.883145,-62.441121
B0J,B0J2S0,Porters Lake,NS,Rural,44.731276,-63.346732
B0J,B0J2T0,Port Medway,NS,Rural,44.111747,-64.630715
B0J,B0J2T3,Sober Island,NS,Rural,45.1245645,-62.4671922
B0J,B0J2V0,Prospect,NS,Rural,44.475382,-63.798088
B0J,B0J2W0,Riverport,NS,Rural,44.295077,-64.321245
B0J,B0J2X0,Rose Bay,NS,Rural,44.277566,-64.259653
B0J,B0J2Y0,Sambro,NS,Rural,44.478816,-63.598945
B0J,B0J2Z0,Seabright,NS,Rural,44.611977,-63.9522
B0J,B0J3A0,Shearwater,NS,Rural,44.633703,-63.515043
B0J,B0J3A1,Halifax,NS,Rural,44.744868,-63.281808
B0J,B0J3B0,Sheet Harbour,NS,Rural,44.883146000000004,-62.441121
B0J,B0J3C0,Sherbrooke,NS,Rural,45.193706,-62.026841
B0J,B0J3E0,Sober Island,NS,Rural,44.912506,-62.483251
B0J,B0J3G0,Tancook Island,NS,Rural,44.45173,-64.17222
B0J,B0J3H0,Tangier,NS,Rural,44.833755,-62.65658
B0J,B0J3J0,Tantallon,NS,Rural,44.672043,-63.85823
B0J,B0J3K0,Terence Bay,NS,Rural,44.468279,-63.713993
B0J,B0J3L0,West Dover,NS,Rural,44.513426,-63.83369
B0J,B0J3M0,Western Shore,NS,Rural,44.523144,-64.31449
B0J,B0J4J4,Halifax,NS,Rural,44.744868,-63.281808
B0J,B0J9Z0,Halifax,NS,Rural,44.744868,-63.281808
B0K,B0K0A2,Stellarton,NS,Rural,45.574316,-62.656599
B0K,B0K1A0,Barneys River Station,NS,Rural,45.580784,-62.196931
B0K,B0K1A1,Pugwash,NS,Rural,45.594249,-62.963489
B0K,B0K1B0,Eureka,NS,Rural,45.430742,-62.606971
B0K,B0K1C0,Hopewell,NS,Rural,45.689396,-62.69657
B0K,B0K1E0,Malagash,NS,Rural,45.794472,-63.453043
B0K,B0K1G0,Merigomish,NS,Rural,45.714164,-62.213319
B0K,B0K1H0,Pictou,NS,Rural,45.856968,-63.646816
B0K,B0K1J0,Pictou Island,NS,Rural,45.780986,-62.615337
B0K,B0K1K0,Port Howe,NS,Rural,45.810472,-63.849946
B0K,B0K1L0,Pugwash,NS,Rural,45.530504,-62.988908
B0K,B0K1M0,Pugwash Junction,NS,Rural,45.722326,-62.896636
B0K,B0K1N0,River John,NS,Rural,45.747988,-63.041939
B0K,B0K1P0,Salt Springs Pictou,NS,Rural,45.477561,-62.884576
B0K,B0K1R0,Scotsburn,NS,Rural,45.734597,-62.817547
B0K,B0K1S0,Stellarton,NS,Rural,45.55832493,-62.66232491
B0K,B0K1S9,Pugwash,NS,Rural,45.594249,-62.963489
B0K,B0K1T0,Sunnybrae,NS,Rural,45.387927,-62.512501
B0K,B0K1V0,Tatamagouche,NS,Rural,45.608086,-62.634014
B0K,B0K1W0,Thorburn,NS,Rural,45.552804,-62.51691
B0K,B0K1X0,Trenton,NS,Rural,45.620417,-62.684167
B0K,B0K1X1,Trenton Kiosk 1,NS,Rural,45.612803,-62.634526
B0K,B0K1X2,Trenton,NS,Rural,45.61271,-62.632271
B0K,B0K1Y0,Wallace,NS,Rural,45.79188,-63.520605
B0K,B0K1Z0,West River Station,NS,Rural,45.498092,-62.831017
B0K,B0K2A0,Westville,NS,Rural,45.567253,-62.715905
B0K,B0K2A1,Pugwash,NS,Rural,45.594249,-62.963489
B0K,B0K3K0,Scotsburn,NS,Rural,45.5854971,-62.8397372
B0L,B0L1A0,Joggins,NS,Rural,45.580208,-64.664577
B0L,B0L1B0,Maccan,NS,Rural,45.641582,-64.307997
B0L,B0L1C0,Nappan,NS,Rural,45.769828,-64.203249
B0L,B0L1E0,Northport,NS,Rural,45.920911,-63.87932
B0L,B0L1G0,River Hebert,NS,Rural,45.615143,-64.476749
B0L,B0L1H0,River Hebert East,NS,Rural,45.641583,-64.307997
B0L,B0L5P0,Maccan,NS,Rural,45.699874,-64.278747
B0M,B0M1A0,Advocate Harbour,NS,Rural,45.331725,-64.759555
B0M,B0M1A1,Springhill,NS,Rural,45.568925,-63.963363
B0M,B0M1B0,Bass River,NS,Rural,45.411578,-63.821722
B0M,B0M1C0,Belmont,NS,Rural,45.441034,-63.373589
B0M,B0M1E0,Collingwood Corner,NS,Rural,45.636927,-63.77345
B0M,B0M1G0,Debert,NS,Rural,45.468637,-63.531392
B0M,B0M1H0,Diligent River,NS,Rural,45.487962,-64.456575
B0M,B0M1J0,Economy,NS,Rural,45.401066,-63.98679
B0M,B0M1K0,Five Islands,NS,Rural,45.408005,-64.021028
B0M,B0M1L0,Great Village,NS,Rural,45.369405,-63.662186
B0M,B0M1M0,Londonderry,NS,Rural,45.601577,-63.744269
B0M,B0M1N0,Lower Five Islands,NS,Rural,45.488707,-64.200191
B0M,B0M1P0,Oxford,NS,Rural,45.810473,-63.849946
B0M,B0M1R0,Oxford Junction,NS,Rural,45.560631,-63.981521
B0M,B0M1S0,Parrsboro,NS,Rural,45.395109,-64.2853
B0M,B0M1T0,Port Greville,NS,Rural,45.412451,-64.544021
B0M,B0M1V0,River Philip,NS,Rural,45.685705,-63.913562
B0M,B0M1W0,Southampton,NS,Rural,45.488708,-64.200191
B0M,B0M1X0,Springhill,NS,Rural,45.664595,-64.034548
B0M,B0M1Y0,Springhill Junction,NS,Rural,45.626506,-64.078283
B0M,B0M1Z0,Wentworth,NS,Rural,45.608367,-63.561966
B0M,B0M2A0,Westchester Station,NS,Rural,45.629448,-63.706338
B0N,B0N1A0,Beaverbank,NS,Rural,44.879392,-63.725383
B0N,B0N1B0,Bedford,NS,Rural,44.743354,-63.653471
B0N,B0N1C0,Brookfield,NS,Rural,45.263092,-63.097746
B0N,B0N1E0,Centre Burlington,NS,Rural,45.067055,-64.05875
B0N,B0N1G0,Cheverie,NS,Rural,45.152443,-64.202395
B0N,B0N1H0,Currys Corner,NS,Rural,44.97686,-64.123648
B0N,B0N1J0,Densmores Mills,NS,Rural,45.262169,-63.6684
B0N,B0N1K0,Elderbank,NS,Rural,44.955947,-63.285348
B0N,B0N1L0,Ellershouse,NS,Rural,44.945888,-63.95347
B0N,B0N1M0,Elmsdale,NS,Rural,44.936919,-63.47949
B0N,B0N1N0,Enfield,NS,Rural,44.950873,-63.530837
B0N,B0N1P0,Kennetcook,NS,Rural,45.125628,-63.839747
B0N,B0N1R0,Lantz,NS,Rural,44.93692,-63.47949
B0N,B0N1S0,Lower Sackville,NS,Rural,44.763795,-63.673512
B0N,B0N1T0,Maitland,NS,Rural,45.031888,-64.088081
B0N,B0N1V0,Meaghers Grant,NS,Rural,44.852365,-63.345308
B0N,B0N1W0,Micmac,NS,Rural,45.093972,-63.477385
B0N,B0N1X0,Middle Musquodoboit,NS,Rural,45.047944,-63.990391
B0N,B0N1Y0,Milford Station,NS,Rural,45.040978,-63.438426
B0N,B0N1Z0,Mount Uniacke,NS,Rural,45.034086,-63.870954
B0N,B0N2A0,Newport,NS,Rural,45.034087,-63.870954
B0N,B0N2B0,Newport Station,NS,Rural,44.950705,-64.061728
B0N,B0N2C0,Noel,NS,Rural,45.228775,-63.677855
B0N,B0N2E0,Ste Croix,NS,Rural,44.875171,-64.069601
B0N,B0N2G0,Scotch Village,NS,Rural,45.080453,-63.914344
B0N,B0N2H0,Shubenacadie,NS,Rural,45.034715,-63.350948
B0N,B0N2J0,Stewiacke,NS,Rural,45.222316,-63.179708
B0N,B0N2K0,Summerville,NS,Rural,45.099464,-64.170075
B0N,B0N2L0,Upper Kennetcook,NS,Rural,45.170635,-63.6224
B0N,B0N2M0,Upper Musquodoboit,NS,Rural,45.053199,-62.900997
B0N,B0N2N0,Upper Rawdon,NS,Rural,45.051453,-63.873087
B0N,B0N2P0,Upper Stewiacke,NS,Rural,45.161954,-63.041941
B0N,B0N2R0,Walton,NS,Rural,45.231407,-64.007354
B0N,B0N2S0,Waverley,NS,Rural,44.717775,-63.522055
B0N,B0N2T0,Windsor,NS,Rural,44.819594,-64.318054
B0N,B0N2V0,Windsor Junction,NS,Rural,44.825004,-63.606795
B0N,B0N2W0,Bedford,NS,Rural,44.724145,-63.675049
B0P,B0P1A0,Auburn,NS,Rural,45.019133,-64.888235
B0P,B0P1A1,Cambridge Station,NS,Rural,44.986854,-64.613306
B0P,B0P1B0,Avonport,NS,Rural,45.095693,-64.227973
B0P,B0P1C0,Aylesford,NS,Rural,45.066995,-64.800737
B0P,B0P1E0,Berwick,NS,Rural,45.090922,-64.823309
B0P,B0P1G0,Cambridge Station,NS,Rural,45.12994,-64.66872
B0P,B0P1H0,Canning,NS,Rural,45.026806,-64.165254
B0P,B0P1J0,Centreville,NS,Rural,45.195976,-64.680474
B0P,B0P1K0,Coldbrook Station,NS,Rural,45.104104,-64.494013
B0P,B0P1L0,West Hants,NS,Rural,44.997485,-64.160143
B0P,B0P1M0,Grand Pre,NS,Rural,45.095031,-64.285653
B0P,B0P1N0,Greenwood,NS,Rural,44.993606,-64.970043
B0P,B0P1P0,Hantsport,NS,Rural,45.067011,-64.174361
B0P,B0P1R0,Kingston,NS,Rural,45.074551,-64.720682
B0P,B0P1S0,Kinsmans Corners,NS,Rural,45.0878,-64.629418
B0P,B0P1T0,Port Williams,NS,Rural,45.159695,-64.362715
B0P,B0P1V0,Waterville,NS,Rural,45.149172,-64.689373
B0P,B0P1W0,Wilmot Station,NS,Rural,44.827657,-64.937875
B0P,B0P1X0,Wolfville,NS,Rural,45.008758,-64.396621
B0P,B0P1Y0,Greenwood,NS,Rural,44.962338,-64.927289
B0P,B0P1Z0,Wolfville,NS,Rural,45.085699,-64.363303
B0P,B0P1Z1,Wolfville,NS,Rural,45.089145,-64.360973
B0P,B0P2E0,Berwick,NS,Rural,44.9771498,-64.7781666
B0P,B0P2T0,Cambridge Station,NS,Rural,44.986835,-64.61462
B0P,B0P9Z0,Cambridge Station,NS,Rural,44.986854,-64.613306
B0R,B0R1A0,Barss Corners,NS,Rural,44.742361,-65.511122
B0R,B0R1B0,Bush Island,NS,Rural,44.24427,-64.45699
B0R,B0R1C0,La Have,NS,Rural,44.238578,-64.435586
B0R,B0R1E0,New Germany,NS,Rural,44.469069,-64.620343
B0R,B0R1G0,Pleasantville,NS,Rural,44.210542,-64.333962
B0R,B0R1H0,Springfield,NS,Rural,44.794246,-64.643897
B0R,B0R2L0,New Germany,NS,Rural,44.60231,-64.698244
B0R,B0R2W0,New Germany,NS,Rural,44.48055,-64.669482
B0S,B0S1A0,Annapolis Royal,NS,Rural,44.74364,-65.51801
B0S,B0S1A1,Annapolis,NS,Rural,44.6573,-65.405245
B0S,B0S1B0,Bear River,NS,Rural,44.554357,-65.610454
B0S,B0S1C0,Bridgetown,NS,Rural,44.764216,-65.44272
B0S,B0S1E0,Clementsport,NS,Rural,44.647048,-65.675932
B0S,B0S1G0,Clementsvale,NS,Rural,44.58943,-65.589217
B0S,B0S1H0,Cornwallis,NS,Rural,44.651815,-65.624302
B0S,B0S1J0,Deep Brook,NS,Rural,44.593516,-65.628486
B0S,B0S1K0,Clementsport,NS,Rural,44.705351,-65.744945
B0S,B0S1L0,Hampton,NS,Rural,44.811549,-65.49446
B0S,B0S1M0,Lawrencetown,NS,Rural,44.891613,-65.06213
B0S,B0S1N0,Margaretsville,NS,Rural,45.019168,-65.017349
B0S,B0S1P0,Middleton,NS,Rural,43.974255,-64.773786
B0S,B0S1R0,Paradise,NS,Rural,44.935412,-65.180707
B0S,B0S1S0,Smiths Cove,NS,Rural,44.52087,-65.669594
B0S,B0S1S3,Dalhousie West,NS,Rural,44.764437,-65.223653
B0S,B0S1V0,Annapolis,NS,Rural,44.6573,-65.405245
B0S,B0S2L1,Annapolis,NS,Rural,44.6573,-65.405245
B0T,B0T1A0,Allendale,NS,Rural,43.702901,-65.111924
B0T,B0T1B0,Caledonia,NS,Rural,44.378101,-65.019781
B0T,B0T1C0,East Side Of Ragged Island,NS,Rural,43.776295,-65.004048
B0T,B0T1E0,Lake Rossignol,NS,Rural,44.197688,-64.946547
B0T,B0T1G0,Liverpool,NS,Rural,44.033339,-64.717118
B0T,B0T1H0,Ingomar,NS,Rural,43.56946,-65.362602999999993
B0T,B0T1J0,Jordan Falls,NS,Rural,43.758594,-65.206881
B0T,B0T1K0,Liverpool,NS,Rural,44.039167,-64.71609
B0T,B0T1L0,Lockeport,NS,Rural,43.71839,-65.12347
B0T,B0T1M0,Lydgate,NS,Rural,43.702902,-65.111924
B0T,B0T1N0,Maitland Bridge,NS,Rural,44.464533,-65.400757
B0T,B0T1P0,Milton,NS,Rural,44.04312,-64.740484
B0T,B0T1R0,Osborne Harbour,NS,Rural,43.722676,-65.10099
B0T,B0T1S0,Port Joli,NS,Rural,43.860801,-64.804924
B0T,B0T1T0,Port Mouton,NS,Rural,43.775345,-65.313433
B0T,B0T1V0,Sabie River,NS,Rural,43.834296,-65.058189
B0T,B0T1W0,Shelburne,NS,Rural,43.66134,-65.41816
B0T,B0T1X0,South Brookfield,NS,Rural,43.746901,-65.986092
B0T,B0T2T0,Lake Rossignol,NS,Rural,44.049024,-65.115746
B0V,B0V1A0,Digby,NS,Rural,44.536344,-65.84642
B0V,B0V1A1,Digby Neck,NS,Rural,44.455282,-66.071615
B0V,B0V1B0,Freeport,NS,Rural,44.272389,-66.316392
B0V,B0V1C0,Little River,NS,Rural,44.444972,-66.146822
B0V,B0V1E0,Sandy Cove,NS,Rural,44.481327,-66.098225
B0V,B0V1G0,Tiverton,NS,Rural,44.27239,-66.316392
B0V,B0V1H0,Westport,NS,Rural,44.244458,-66.377368
B0V,B0V1J0,Digby,NS,Rural,44.621734,-65.759462
B0V,B0V1S0,Digby Neck,NS,Rural,44.455282,-66.071616
B0W,B0W1A0,Abram River,NS,Rural,43.818739,-65.951742
B0W,B0W1A1,Whipple Point,NS,Rural,43.969119,-66.68609
B0W,B0W1B0,Arcadia,NS,Rural,43.749188,-65.994395
B0W,B0W1C0,Baccaro,NS,Rural,43.468791,-65.476344
B0W,B0W1E0,Barrington,NS,Rural,43.59399,-65.63927
B0W,B0W1G0,Barrington Passage,NS,Rural,43.57519,-65.628997
B0W,B0W1H0,Barton,NS,Rural,43.675913,-65.708017
B0W,B0W1J0,Belliveau Cove,NS,Rural,44.357602,-66.072105
B0W,B0W1K0,Cape Negro,NS,Rural,43.512728,-65.382133
B0W,B0W1L0,Carleton,NS,Rural,43.630898,-65.802387
B0W,B0W1M0,Church Point,NS,Rural,44.110854,-66.164613
B0W,B0W1N0,Clam Point,NS,Rural,43.46029,-65.552309
B0W,B0W1P0,Clarks Harbour,NS,Rural,43.462969,-65.650454
B0W,B0W1R0,Clyde River,NS,Rural,43.585543,-65.472672
B0W,B0W1S0,Crowell,NS,Rural,43.531244,-65.6277
B0W,B0W1T0,East Baccaro,NS,Rural,43.460595,-65.468324
B0W,B0W1V0,East Quinan,NS,Rural,43.89986,-65.818818
B0W,B0W1W0,Glenwood,NS,Rural,43.672428,-65.806827
B0W,B0W1X0,Hebron,NS,Rural,43.876634,-66.093611
B0W,B0W1Y0,Kemptville,NS,Rural,44.024323,-65.857939
B0W,B0W1Z0,Little Brook,NS,Rural,44.291461,-66.084435
B0W,B0W1Z1,Westport,NS,Rural,43.969119,-66.68609
B0W,B0W2A0,Pubnico,NS,Rural,43.669838,-65.755727
B0W,B0W2A1,Whipple Point,NS,Rural,43.969119,-66.68609
B0W,B0W2B0,Lower Wedgeport,NS,Rural,43.717172,-65.97528
B0W,B0W2C0,Lower West Pubnico,NS,Rural,43.626868,-65.791967
B0W,B0W2E0,Lower Woods Harbour,NS,Rural,43.506113,-65.718791
B0W,B0W2G0,Mcgray,NS,Rural,43.542931,-65.590994
B0W,B0W2H0,Mavillette,NS,Rural,44.035323,-66.20485
B0W,B0W2J0,Meteghan,NS,Rural,44.158134,-66.258852
B0W,B0W2K0,Meteghan Centre,NS,Rural,44.142532,-66.131239
B0W,B0W2L0,Meteghan River,NS,Rural,44.221552,-66.119502
B0W,B0W2M0,Middle West Pubnico,NS,Rural,43.614492,-65.802918
B0W,B0W2N0,Newellton,NS,Rural,43.457694,-65.633897
B0W,B0W2P0,North East Point,NS,Rural,43.490149,-65.613993
B0W,B0W2R0,Digby,NS,Rural,44.493732,-65.929876
B0W,B0W2R8,Argyle,NS,Rural,44.116948,-65.813397
B0W,B0W2S0,Port Clyde,NS,Rural,43.512729,-65.382133
B0W,B0W2T0,Port La Tour,NS,Rural,43.468792,-65.476344
B0W,B0W2V0,Port Maitland,NS,Rural,44.016485,-66.127575
B0W,B0W2W0,Pubnico,NS,Rural,43.672429,-65.806827
B0W,B0W2X0,Ste-Anne-Du-Ruisseau,NS,Rural,43.81874,-65.951742
B0W,B0W2Y0,Salmon River,NS,Rural,44.169749,-65.756352
B0W,B0W2Z0,Saulnierville,NS,Rural,43.730094,-65.974666
B0W,B0W3A0,Seal Island,NS,Rural,43.370331,-65.944298
B0W,B0W3A1,Whipple Point,NS,Rural,43.969119,-66.68609
B0W,B0W3B0,Shag Harbour,NS,Rural,43.506114,-65.718791
B0W,B0W3C0,Smithsville,NS,Rural,43.468793,-65.476344
B0W,B0W3E0,South Ohio,NS,Rural,44.016486,-66.127575
B0W,B0W3G0,South Side,NS,Rural,43.444055,-65.635361
B0W,B0W3H0,Stone Horse,NS,Rural,43.533379,-65.61115
B0W,B0W3J0,Stoney Island,NS,Rural,43.460291,-65.552309
B0W,B0W3K0,The Hawk,NS,Rural,43.444056,-65.635361
B0W,B0W3L0,Thomasville,NS,Rural,43.51273,-65.382133
B0W,B0W3M0,Tusket,NS,Rural,43.83593,-65.964741
B0W,B0W3N0,Upper Port La Tour,NS,Rural,43.512731,-65.382133
B0W,B0W3P0,Wedgeport,NS,Rural,43.721842,-65.975976
B0W,B0W3R0,West Head,NS,Rural,43.446421,-65.63641
B0W,B0W3S0,West Pubnico,NS,Rural,43.614493,-65.802918
B0W,B0W3T0,Weymouth,NS,Rural,44.338324,-65.875315
B1A,B1A0A1,Glace Bay,NS,Urban,46.084252,-60.108202
B1A,B1A0A2,Glace Bay,NS,Urban,46.084252,-60.108202
B1A,B1A0A3,NA,NS,Urban,46.1876947,-59.9549819
B1A,B1A1A1,Glace Bay,NS,Urban,46.179448,-59.94768
B1A,B1A1A2,Glace Bay,NS,Urban,46.18712,-59.940267
B1A,B1A1A3,Glace Bay,NS,Urban,46.186854,-59.940184
B1A,B1A1A4,Glace Bay,NS,Urban,46.186912,-59.939678
B1A,B1A1A5,Glace Bay,NS,Urban,46.187164,-59.939776
B1A,B1A1A6,Glace Bay,NS,Urban,46.183896,-59.944685
B1A,B1A1A7,Glace Bay,NS,Urban,46.18394,-59.945056
B1A,B1A1A8,Glace Bay,NS,Urban,46.184489,-59.94544
B1A,B1A1A9,Glace Bay,NS,Urban,46.187714,-59.940774
B1A,B1A1B1,Glace Bay,NS,Urban,46.187501,-59.940622
B1A,B1A1B2,Glace Bay,NS,Urban,46.18800485,-59.94084261
B1A,B1A1B3,Glace Bay,NS,Urban,46.18807063,-59.94075217
B1A,B1A1B4,Glace Bay,NS,Urban,46.18837871,-59.9427773
B1A,B1A1B5,Glace Bay,NS,Urban,46.18841021,-59.94273362
B1A,B1A1B6,Glace Bay,NS,Urban,46.18821849,-59.94299658
B1A,B1A1B7,Glace Bay,NS,Urban,46.18712614,-59.94446367
B1A,B1A1B8,Glace Bay,NS,Urban,46.18623092,-59.94566555
B1A,B1A1B9,Glace Bay,NS,Urban,46.1854221,-59.94674671
B1A,B1A1C1,Glace Bay,NS,Urban,46.18510612,-59.94719091
B1A,B1A1C2,Glace Bay,NS,Urban,46.18472649,-59.94776382
B1A,B1A1C3,Glace Bay,NS,Urban,46.18350109,-59.94977334
B1A,B1A1C4,Glace Bay,NS,Urban,46.18218821,-59.95181604
B1A,B1A1C5,Glace Bay,NS,Urban,46.191444,-59.941146
B1A,B1A1C6,Glace Bay,NS,Urban,46.191444,-59.941146
B1A,B1A1C7,Glace Bay,NS,Urban,46.18917916,-59.94450262
B1A,B1A1C8,Glace Bay,NS,Urban,46.18888697,-59.9448828
B1A,B1A1C9,Glace Bay,NS,Urban,46.189263,-59.94439263
B1A,B1A1E1,Glace Bay,NS,Urban,46.1807807,-59.95382906
B1A,B1A1E2,Glace Bay,NS,Urban,46.190159,-59.945747
B1A,B1A1E3,Glace Bay,NS,Urban,46.190419,-59.94584
B1A,B1A1E4,Glace Bay,NS,Urban,46.19106334,-59.94745907
B1A,B1A1E5,Glace Bay,NS,Urban,46.19120934,-59.9472691
B1A,B1A1E6,Glace Bay,NS,Urban,46.18429702,-59.95632424
B1A,B1A1E7,Glace Bay,NS,Urban,46.18536457,-59.9548945
B1A,B1A1E8,Glace Bay,NS,Urban,46.18481523,-59.95560371
B1A,B1A1E9,Glace Bay,NS,Urban,46.184138,-59.956309
B1A,B1A1G1,Glace Bay,NS,Urban,46.18652841,-59.95338383
B1A,B1A1G2,Glace Bay,NS,Urban,46.18758196,-59.95201619
B1A,B1A1G3,Glace Bay,NS,Urban,46.17365395,-59.95319139
B1A,B1A1G4,Glace Bay,NS,Urban,46.17625442,-59.95809018
B1A,B1A1G5,Glace Bay,NS,Urban,46.176396,-59.95772
B1A,B1A1G6,Glace Bay,NS,Urban,46.175125,-59.960671
B1A,B1A1G7,Glace Bay,NS,Urban,46.174916,-59.960513
B1A,B1A1G8,Glace Bay,NS,Urban,46.174357,-59.966029
B1A,B1A1G9,Glace Bay,NS,Urban,46.174087,-59.966022
B1A,B1A1H1,Glace Bay,NS,Urban,46.180506,-59.95691453
B1A,B1A1H2,Glace Bay,NS,Urban,46.18059044,-59.95734891
B1A,B1A1H3,Glace Bay,NS,Urban,46.18153676,-59.95615348
B1A,B1A1H4,Glace Bay,NS,Urban,46.18085997,-59.95749414
B1A,B1A1H5,Glace Bay,NS,Urban,46.181142,-59.963085
B1A,B1A1H6,Glace Bay,NS,Urban,46.18153928,-59.96254174
B1A,B1A1H7,Glace Bay,NS,Urban,46.18182181,-59.96179892
B1A,B1A1H8,Glace Bay,NS,Urban,46.181942,-59.961317
B1A,B1A1H9,Glace Bay,NS,Urban,46.183166,-59.960004
B1A,B1A1J1,Glace Bay,NS,Urban,46.182463,-59.960933
B1A,B1A1J2,Glace Bay,NS,Urban,46.183166,-59.960004
B1A,B1A1J3,Glace Bay,NS,Urban,46.183166,-59.960004
B1A,B1A1J4,Glace Bay,NS,Urban,46.183166,-59.960004
B1A,B1A1J5,Glace Bay,NS,Urban,46.18516498,-59.95745996
B1A,B1A1J6,Glace Bay,NS,Urban,46.18535517,-59.95720582
B1A,B1A1J7,Glace Bay,NS,Urban,46.18588,-59.956523
B1A,B1A1J8,Glace Bay,NS,Urban,46.18562926,-59.95683956
B1A,B1A1J9,Glace Bay,NS,Urban,46.18377524,-59.96656669
B1A,B1A1K1,Glace Bay,NS,Urban,46.18634548,-59.95594495
B1A,B1A1K2,Glace Bay,NS,Urban,46.18957703,-59.95661878
B1A,B1A1K3,Glace Bay,NS,Urban,46.18983357,-59.95637401
B1A,B1A1K4,Glace Bay,NS,Urban,46.19100225,-59.95525899
B1A,B1A1K5,Glace Bay,NS,Urban,46.19062497,-59.95559501
B1A,B1A1K6,Glace Bay,NS,Urban,46.1905738,-59.95564774
B1A,B1A1K7,Glace Bay,NS,Urban,46.191402,-59.956473
B1A,B1A1K8,Glace Bay,NS,Urban,46.189945,-59.955934
B1A,B1A1K9,Glace Bay,NS,Urban,46.183665,-59.937605
B1A,B1A1L1,Glace Bay,NS,Urban,46.18983544,-59.95637842
B1A,B1A1L2,Glace Bay,NS,Urban,46.18880627,-59.95754138
B1A,B1A1L3,Glace Bay,NS,Urban,46.18830227,-59.95821491
B1A,B1A1L4,Glace Bay,NS,Urban,46.18788857,-59.95874547
B1A,B1A1L5,Glace Bay,NS,Urban,46.18685,-59.959656
B1A,B1A1L6,Glace Bay,NS,Urban,46.18680593,-59.96006035
B1A,B1A1L7,Glace Bay,NS,Urban,46.18560017,-59.96129103
B1A,B1A1L8,Glace Bay,NS,Urban,46.18483251,-59.96173854
B1A,B1A1L9,Glace Bay,NS,Urban,46.183352,-59.963933
B1A,B1A1M1,Glace Bay,NS,Urban,46.183937,-59.96132
B1A,B1A1M2,Glace Bay,NS,Urban,46.18259588,-59.96278617
B1A,B1A1M3,Glace Bay,NS,Urban,46.18423446,-59.9620693
B1A,B1A1M4,Glace Bay,NS,Urban,46.180274,-59.961736
B1A,B1A1M5,Glace Bay,NS,Urban,46.18079438,-59.96349941
B1A,B1A1M6,Glace Bay,NS,Urban,46.18058635,-59.96361017
B1A,B1A1M7,Glace Bay,NS,Urban,46.17916302,-59.96445475
B1A,B1A1M8,Glace Bay,NS,Urban,46.178447,-59.964722
B1A,B1A1M9,Glace Bay,NS,Urban,46.17841033,-59.96498306
B1A,B1A1N1,Glace Bay,NS,Urban,46.17398,-59.966389
B1A,B1A1N2,Glace Bay,NS,Urban,46.191309,-59.948402
B1A,B1A1N3,Glace Bay,NS,Urban,46.194431,-59.944424
B1A,B1A1N4,Glace Bay,NS,Urban,46.191889,-59.948926
B1A,B1A1N5,Glace Bay,NS,Urban,46.196654,-59.942941
B1A,B1A1N6,Glace Bay,NS,Urban,46.19535058,-59.94458732
B1A,B1A1N7,Glace Bay,NS,Urban,46.19379209,-59.94811597
B1A,B1A1N8,Glace Bay,NS,Urban,46.19338897,-59.94856258
B1A,B1A1N9,Glace Bay,NS,Urban,46.191989,-59.95048
B1A,B1A1P1,Glace Bay,NS,Urban,46.192133,-59.950691
B1A,B1A1P2,Glace Bay,NS,Urban,46.192142,-59.951042
B1A,B1A1P3,Glace Bay,NS,Urban,46.192354,-59.951196
B1A,B1A1P4,Glace Bay,NS,Urban,46.188043,-59.95327
B1A,B1A1P5,Glace Bay,NS,Urban,46.18926667,-59.95271902
B1A,B1A1P6,Glace Bay,NS,Urban,46.19126,-59.951896
B1A,B1A1P7,Glace Bay,NS,Urban,46.187398,-59.954502
B1A,B1A1P8,Glace Bay,NS,Urban,46.18762,-59.954645
B1A,B1A1P9,Glace Bay,NS,Urban,46.190924,-59.952247
B1A,B1A1R1,Glace Bay,NS,Urban,46.191187,-59.952191
B1A,B1A1R2,Glace Bay,NS,Urban,46.19327,-59.953254
B1A,B1A1R3,Glace Bay,NS,Urban,46.193038,-59.952758
B1A,B1A1R4,Glace Bay,NS,Urban,46.19333293,-59.95095429
B1A,B1A1R5,Glace Bay,NS,Urban,46.19478824,-59.94885483
B1A,B1A1R6,Glace Bay,NS,Urban,46.19390053,-59.94972224
B1A,B1A1R7,Glace Bay,NS,Urban,46.19495927,-59.94879594
B1A,B1A1R8,Glace Bay,NS,Urban,46.19586009,-59.94850394
B1A,B1A1R9,Glace Bay,NS,Urban,46.19579995,-59.94852341
B1A,B1A1S1,Glace Bay,NS,Urban,46.193426,-59.953732
B1A,B1A1S2,Glace Bay,NS,Urban,46.193144,-59.953677
B1A,B1A1S3,Glace Bay,NS,Urban,46.19657871,-59.94789849
B1A,B1A1S4,Glace Bay,NS,Urban,46.19658163,-59.94798338
B1A,B1A1S5,Glace Bay,NS,Urban,46.19593728,-59.94813949
B1A,B1A1S6,Glace Bay,NS,Urban,46.19592292,-59.94803098
B1A,B1A1S7,Glace Bay,NS,Urban,46.19483788,-59.94870411
B1A,B1A1S8,Glace Bay,NS,Urban,46.19479365,-59.94858726
B1A,B1A1S9,Glace Bay,NS,Urban,46.19431883,-59.94902413
B1A,B1A1T1,Glace Bay,NS,Urban,46.19405546,-59.94857005
B1A,B1A1T2,Glace Bay,NS,Urban,46.19374612,-59.95028647
B1A,B1A1T3,Glace Bay,NS,Urban,46.19433122,-59.95076247
B1A,B1A1T4,Glace Bay,NS,Urban,46.19373384,-59.95161083
B1A,B1A1T5,Glace Bay,NS,Urban,46.19338114,-59.95120312
B1A,B1A1T6,Glace Bay,NS,Urban,46.192936,-59.953647
B1A,B1A1T7,Glace Bay,NS,Urban,46.193181,-59.95354
B1A,B1A1T8,Glace Bay,NS,Urban,46.192278,-59.951831
B1A,B1A1T9,Glace Bay,NS,Urban,46.192167,-59.95157
B1A,B1A1V2,Glace Bay,NS,Urban,46.192008,-59.95039
B1A,B1A1V3,Glace Bay,NS,Urban,46.191553999999996,-59.9492
B1A,B1A1V4,Glace Bay,NS,Urban,46.191195,-59.948186
B1A,B1A1V5,Glace Bay,NS,Urban,46.190948,-59.94749
B1A,B1A1V6,Glace Bay,NS,Urban,46.190663,-59.947497
B1A,B1A1V7,Glace Bay,NS,Urban,46.190205,-59.945602
B1A,B1A1V8,Glace Bay,NS,Urban,46.189223,-59.943645
B1A,B1A1V9,Glace Bay,NS,Urban,46.189304,-59.943134
B1A,B1A1W1,Glace Bay,NS,Urban,46.188379,-59.941836
B1A,B1A1W2,Glace Bay,NS,Urban,46.18797,-59.940758
B1A,B1A1W3,Glace Bay,NS,Urban,46.187476,-59.94055
B1A,B1A1W4,Glace Bay,NS,Urban,46.18683,-59.939634
B1A,B1A1W5,Glace Bay,NS,Urban,46.185944,-59.939418
B1A,B1A1W6,Glace Bay,NS,Urban,46.18536,-59.938789
B1A,B1A1W7,Glace Bay,NS,Urban,46.18893067,-59.94452102
B1A,B1A1W8,Glace Bay,NS,Urban,46.18889026,-59.94442023
B1A,B1A1W9,Glace Bay,NS,Urban,46.19093064,-59.95488696
B1A,B1A1X1,Glace Bay,NS,Urban,46.19094635,-59.954916
B1A,B1A1X2,Glace Bay,NS,Urban,46.18691962,-59.94391477
B1A,B1A1X3,Glace Bay,NS,Urban,46.18712977,-59.94427518
B1A,B1A1X4,Glace Bay,NS,Urban,46.18585495,-59.94477047
B1A,B1A1X5,Glace Bay,NS,Urban,46.18591829,-59.94488547
B1A,B1A1X6,Glace Bay,NS,Urban,46.179448,-59.947687
B1A,B1A1X7,Glace Bay,NS,Urban,46.19065685,-59.95581551
B1A,B1A1X8,Glace Bay,NS,Urban,46.19078141,-59.95606717
B1A,B1A1X9,Glace Bay,NS,Urban,46.19031845,-59.95487052
B1A,B1A1Y1,Glace Bay,NS,Urban,46.19013961,-59.95453464
B1A,B1A1Y2,Glace Bay,NS,Urban,46.18448,-59.945245
B1A,B1A1Y3,Glace Bay,NS,Urban,46.18448,-59.945245
B1A,B1A1Y4,Glace Bay,NS,Urban,46.18448,-59.945245
B1A,B1A1Y5,Glace Bay,NS,Urban,46.16725797,-60.18890951
B1A,B1A1Y6,Glace Bay,NS,Urban,46.16776029,-60.1887874
B1A,B1A1Y7,Glace Bay,NS,Urban,46.184062,-59.944596
B1A,B1A1Y8,Glace Bay,NS,Urban,46.183912,-59.943441
B1A,B1A1Y9,Glace Bay,NS,Urban,46.190642510000004,-59.9563777
B1A,B1A1Z1,Glace Bay,NS,Urban,46.19077664,-59.95652546
B1A,B1A1Z2,Glace Bay,NS,Urban,46.189684,-59.954363
B1A,B1A1Z3,Glace Bay,NS,Urban,46.19015623,-59.95600361
B1A,B1A1Z4,Glace Bay,NS,Urban,46.19024452,-59.95691879
B1A,B1A1Z5,Glace Bay,NS,Urban,46.190222,-59.956521
B1A,B1A1Z6,Glace Bay,NS,Urban,46.18937428,-59.95878432
B1A,B1A1Z7,Glace Bay,NS,Urban,46.18900766,-59.95791506
B1A,B1A1Z8,Glace Bay,NS,Urban,46.18863555,-59.95858474
B1A,B1A1Z9,Glace Bay,NS,Urban,46.1885181,-59.95842815
B1A,B1A2A1,Glace Bay,NS,Urban,46.188081,-59.953371
B1A,B1A2A2,Glace Bay,NS,Urban,46.18789,-59.95368
B1A,B1A2A3,Glace Bay,NS,Urban,46.188414,-59.954604
B1A,B1A2A4,Glace Bay,NS,Urban,46.18454508,-59.947513
B1A,B1A2A5,Glace Bay,NS,Urban,46.18469625,-59.94772201
B1A,B1A2A6,Glace Bay,NS,Urban,46.1879293,-59.95836444
B1A,B1A2A7,Glace Bay,NS,Urban,46.18799022,-59.9584575
B1A,B1A2A8,Glace Bay,NS,Urban,46.18579333,-59.95562731
B1A,B1A2A9,Glace Bay,NS,Urban,46.18604712,-59.95606103
B1A,B1A2B1,Glace Bay,NS,Urban,46.18590018,-59.95548745
B1A,B1A2B2,Glace Bay,NS,Urban,46.18527312,-59.95629888
B1A,B1A2B3,Glace Bay,NS,Urban,46.18522224,-59.95622164
B1A,B1A2B4,Glace Bay,NS,Urban,46.18684531,-59.95914383
B1A,B1A2B5,Glace Bay,NS,Urban,46.18693395,-59.95929329
B1A,B1A2B6,Glace Bay,NS,Urban,46.18452534,-59.95515405
B1A,B1A2B7,Glace Bay,NS,Urban,46.1823577,-59.981105
B1A,B1A2B8,Glace Bay,NS,Urban,46.18096789,-59.9880068
B1A,B1A2B9,Glace Bay,NS,Urban,46.18469276,-59.95745593
B1A,B1A2C1,Glace Bay,NS,Urban,46.18471462,-59.95749022
B1A,B1A2C2,Glace Bay,NS,Urban,46.18167255,-59.95635513
B1A,B1A2C3,Glace Bay,NS,Urban,46.18266777,-59.9588872
B1A,B1A2C4,Glace Bay,NS,Urban,46.194169,-59.983353
B1A,B1A2C5,Glace Bay,NS,Urban,46.18298482,-59.95937999
B1A,B1A2C6,Glace Bay,NS,Urban,46.18305009,-59.95946643
B1A,B1A2C7,Glace Bay,NS,Urban,46.182595,-59.958855
B1A,B1A2C8,Glace Bay,NS,Urban,46.18253238,-59.95876197
B1A,B1A2C9,Glace Bay,NS,Urban,46.18192983,-59.95906688
B1A,B1A2E1,Glace Bay,NS,Urban,46.18265849,-59.95894779
B1A,B1A2E2,Glace Bay,NS,Urban,46.18208456,-59.96037256
B1A,B1A2E3,Glace Bay,NS,Urban,46.18047,-59.958253
B1A,B1A2E4,Glace Bay,NS,Urban,46.18413003,-59.96134727
B1A,B1A2E5,Glace Bay,NS,Urban,46.18344719,-59.96039571
B1A,B1A2E6,Glace Bay,NS,Urban,46.183938,-59.96132
B1A,B1A2E7,Glace Bay,NS,Urban,46.1833036,-59.96208727
B1A,B1A2E8,Glace Bay,NS,Urban,46.15915353,-60.18765173
B1A,B1A2E9,Glace Bay,NS,Urban,46.18531474,-59.96157372
B1A,B1A2G1,Glace Bay,NS,Urban,46.18482474,-59.96203241
B1A,B1A2G2,Glace Bay,NS,Urban,46.183353,-59.963933
B1A,B1A2G3,Glace Bay,NS,Urban,46.183354,-59.963933
B1A,B1A2G4,Glace Bay,NS,Urban,46.18175412,-59.96131789
B1A,B1A2G5,Glace Bay,NS,Urban,46.18159225,-59.96108446
B1A,B1A2G6,Glace Bay,NS,Urban,46.18140167,-59.96236066
B1A,B1A2G7,Glace Bay,NS,Urban,46.18043841,-59.96109312
B1A,B1A2G8,Glace Bay,NS,Urban,46.17905228,-59.96092428
B1A,B1A2G9,Glace Bay,NS,Urban,46.17900298,-59.9608514
B1A,B1A2H1,Glace Bay,NS,Urban,46.17650321,-59.95719975
B1A,B1A2H2,Glace Bay,NS,Urban,46.17698101,-59.95787196
B1A,B1A2H3,Glace Bay,NS,Urban,46.180645,-59.950827
B1A,B1A2H4,Glace Bay,NS,Urban,46.17938098,-59.96462194
B1A,B1A2H5,Glace Bay,NS,Urban,46.17937977,-59.9642526
B1A,B1A2H6,Glace Bay,NS,Urban,46.17885955,-59.96453006
B1A,B1A2H7,Glace Bay,NS,Urban,46.17864276,-59.96421299
B1A,B1A2H8,Glace Bay,NS,Urban,46.177753,-59.965045
B1A,B1A2H9,Glace Bay,NS,Urban,46.177978,-59.964907
B1A,B1A2J1,Glace Bay,NS,Urban,46.175922,-59.962347
B1A,B1A2J2,Glace Bay,NS,Urban,46.174891,-59.960401
B1A,B1A2J3,Glace Bay,NS,Urban,46.17705887,-59.96559187
B1A,B1A2J4,Glace Bay,NS,Urban,46.17580254,-59.96386869
B1A,B1A2J5,Glace Bay,NS,Urban,46.19397657,-59.95460477
B1A,B1A2J6,Glace Bay,NS,Urban,46.191402,-59.95647
B1A,B1A2J7,Glace Bay,NS,Urban,46.193689,-59.955089
B1A,B1A2J8,Glace Bay,NS,Urban,46.19168518,-59.96116414
B1A,B1A2J9,Glace Bay,NS,Urban,46.189516,-59.960675
B1A,B1A2K1,Glace Bay,NS,Urban,46.188418,-59.962122
B1A,B1A2K2,Glace Bay,NS,Urban,46.167331,-60.183854
B1A,B1A2K3,Glace Bay,NS,Urban,46.189759,-59.960353
B1A,B1A2K4,Glace Bay,NS,Urban,46.18771103,-59.9629902
B1A,B1A2K5,Glace Bay,NS,Urban,46.1937429,-59.9561191
B1A,B1A2K6,Glace Bay,NS,Urban,46.19378223,-59.95606058
B1A,B1A2K7,Glace Bay,NS,Urban,46.189906,-59.961665000000004
B1A,B1A2K8,Glace Bay,NS,Urban,46.18879,-59.963144
B1A,B1A2K9,Glace Bay,NS,Urban,46.188575,-59.962994
B1A,B1A2L1,Glace Bay,NS,Urban,46.194044,-59.955341
B1A,B1A2L2,Glace Bay,NS,Urban,46.193521,-59.956672
B1A,B1A2L3,Glace Bay,NS,Urban,46.192495,-59.958174
B1A,B1A2L4,Glace Bay,NS,Urban,46.192276,-59.958029
B1A,B1A2L5,Glace Bay,NS,Urban,46.19482924,-59.95495094
B1A,B1A2L6,Glace Bay,NS,Urban,46.19486343,-59.95487855
B1A,B1A2L7,Glace Bay,NS,Urban,46.195376,-59.953884
B1A,B1A2L8,Glace Bay,NS,Urban,46.19488,-59.955885
B1A,B1A2L9,Glace Bay,NS,Urban,46.195091,-59.956042
B1A,B1A2M1,Glace Bay,NS,Urban,46.19456955,-59.95655891
B1A,B1A2M2,Glace Bay,NS,Urban,46.19451559,-59.95663173
B1A,B1A2M3,Glace Bay,NS,Urban,46.1934364,-59.95808805
B1A,B1A2M4,Glace Bay,NS,Urban,46.19290547,-59.95877881
B1A,B1A2M5,Glace Bay,NS,Urban,46.19244365,-59.95937404
B1A,B1A2M6,Glace Bay,NS,Urban,46.192952,-59.95871975
B1A,B1A2M7,Glace Bay,NS,Urban,46.19171319,-59.96033738
B1A,B1A2M8,Glace Bay,NS,Urban,46.19092186,-59.96138101
B1A,B1A2M9,Glace Bay,NS,Urban,46.19046533,-59.9619831
B1A,B1A2N1,Glace Bay,NS,Urban,46.1901914,-59.96234435
B1A,B1A2N2,Glace Bay,NS,Urban,46.1897653,-59.96290631
B1A,B1A2N3,Glace Bay,NS,Urban,46.18915757,-59.96367411
B1A,B1A2N4,Glace Bay,NS,Urban,46.18903725,-59.96384209
B1A,B1A2N5,Glace Bay,NS,Urban,46.18852637,-59.96455148
B1A,B1A2N6,Glace Bay,NS,Urban,46.187695,-59.965698
B1A,B1A2N7,Glace Bay,NS,Urban,46.187374,-59.965903
B1A,B1A2N8,Glace Bay,NS,Urban,46.187286,-59.966411
B1A,B1A2N9,Glace Bay,NS,Urban,46.19664,-59.955975
B1A,B1A2P1,Glace Bay,NS,Urban,46.19614067,-59.9548288
B1A,B1A2P2,Glace Bay,NS,Urban,46.195534,-59.956678
B1A,B1A2P3,Glace Bay,NS,Urban,46.195597,-59.95777
B1A,B1A2P4,Glace Bay,NS,Urban,46.194166,-59.958464
B1A,B1A2P5,Glace Bay,NS,Urban,46.19604082,-59.95799947
B1A,B1A2P6,Glace Bay,NS,Urban,46.19631908,-59.95762106
B1A,B1A2P7,Glace Bay,NS,Urban,46.19469232,-59.9598333
B1A,B1A2P8,Glace Bay,NS,Urban,46.19416463,-59.96055079
B1A,B1A2P9,Glace Bay,NS,Urban,46.19361908,-59.96122781
B1A,B1A2R1,Glace Bay,NS,Urban,46.188623,-59.966849
B1A,B1A2R2,Glace Bay,NS,Urban,46.192596,-59.962398
B1A,B1A2R3,Glace Bay,NS,Urban,46.19171661,-59.96332229
B1A,B1A2R4,Glace Bay,NS,Urban,46.191318,-59.963767
B1A,B1A2R5,Glace Bay,NS,Urban,46.190865,-59.964235
B1A,B1A2R6,Glace Bay,NS,Urban,46.19028525,-59.96480983
B1A,B1A2R7,Glace Bay,NS,Urban,46.18939491,-59.96548568
B1A,B1A2R8,Glace Bay,NS,Urban,46.188152,-59.96619866
B1A,B1A2R9,Glace Bay,NS,Urban,46.17952934,-59.96954884
B1A,B1A2S1,Glace Bay,NS,Urban,46.1793176,-59.97218551
B1A,B1A2S2,Glace Bay,NS,Urban,46.17955,-59.9721786
B1A,B1A2S3,Glace Bay,NS,Urban,46.180281,-59.981532
B1A,B1A2S4,Glace Bay,NS,Urban,46.17718553,-59.97223249
B1A,B1A2S5,Glace Bay,NS,Urban,46.17815529,-59.97223297
B1A,B1A2S6,Glace Bay,NS,Urban,46.17854278,-59.972215
B1A,B1A2S7,Glace Bay,NS,Urban,46.17844591,-59.97221949
B1A,B1A2S8,Glace Bay,NS,Urban,46.17764141,-59.97484059
B1A,B1A2S9,Glace Bay,NS,Urban,46.188014,-59.967664
B1A,B1A2T1,Glace Bay,NS,Urban,46.191073,-59.967489
B1A,B1A2T2,Glace Bay,NS,Urban,46.189848,-59.966306
B1A,B1A2T3,Glace Bay,NS,Urban,46.189944,-59.966172
B1A,B1A2T4,Glace Bay,NS,Urban,46.189334,-59.967015
B1A,B1A2T5,Glace Bay,NS,Urban,46.189281,-59.967085
B1A,B1A2T6,Glace Bay,NS,Urban,46.18872549,-59.96782675
B1A,B1A2T7,Glace Bay,NS,Urban,46.180732,-59.973314
B1A,B1A2T8,Glace Bay,NS,Urban,46.1872801,-59.96968628
B1A,B1A2T9,Glace Bay,NS,Urban,46.1859952,-59.97137149
B1A,B1A2V1,Glace Bay,NS,Urban,46.184475,-59.973222
B1A,B1A2V2,Glace Bay,NS,Urban,46.18286546,-59.97419746
B1A,B1A2V3,Glace Bay,NS,Urban,46.18066443,-59.97481725
B1A,B1A2V4,Glace Bay,NS,Urban,46.1795,-59.975134
B1A,B1A2V5,Glace Bay,NS,Urban,46.179234,-59.975079
B1A,B1A2V6,Glace Bay,NS,Urban,46.17838831,-59.9774542
B1A,B1A2V7,Glace Bay,NS,Urban,46.178397,-59.977676
B1A,B1A2V8,Glace Bay,NS,Urban,46.17616952,-59.98108416
B1A,B1A2V9,Glace Bay,NS,Urban,46.17536786,-59.98265928
B1A,B1A2W1,Glace Bay,NS,Urban,46.17793112,-59.98400638
B1A,B1A2W2,Glace Bay,NS,Urban,46.17708188,-59.98509278
B1A,B1A2W3,Glace Bay,NS,Urban,46.17694941,-59.98525721
B1A,B1A2W4,Glace Bay,NS,Urban,46.18518668,-59.97423202
B1A,B1A2W5,Glace Bay,NS,Urban,46.1810497,-59.97497087
B1A,B1A2W6,Glace Bay,NS,Urban,46.19679869,-59.95962954
B1A,B1A2W7,Glace Bay,NS,Urban,46.184459,-60.022607
B1A,B1A2W8,Glace Bay,NS,Urban,46.19541593,-59.96233948
B1A,B1A2W9,Glace Bay,NS,Urban,46.19647722,-59.95988868
B1A,B1A2X1,Glace Bay,NS,Urban,46.19511279,-59.96262054
B1A,B1A2X2,Glace Bay,NS,Urban,46.19141034,-59.96573507
B1A,B1A2X3,Glace Bay,NS,Urban,46.19114332,-59.96608863
B1A,B1A2X4,Glace Bay,NS,Urban,46.18973265,-59.96780844
B1A,B1A2X5,Glace Bay,NS,Urban,46.1896648,-59.96790086
B1A,B1A2X6,Glace Bay,NS,Urban,46.19019705,-59.96850164
B1A,B1A2X7,Glace Bay,NS,Urban,46.18997634,-59.96879916
B1A,B1A2X8,Glace Bay,NS,Urban,46.19263007,-59.9685836
B1A,B1A2X9,Glace Bay,NS,Urban,46.19091853,-59.97048505
B1A,B1A2Y1,Glace Bay,NS,Urban,46.19311971,-59.9650956
B1A,B1A2Y2,Glace Bay,NS,Urban,46.191374,-59.968467
B1A,B1A2Y3,Glace Bay,NS,Urban,46.19159,-59.968617
B1A,B1A2Y4,Glace Bay,NS,Urban,46.191828,-59.967896
B1A,B1A2Y5,Glace Bay,NS,Urban,46.18921147,-59.99214478
B1A,B1A2Y6,Glace Bay,NS,Urban,46.18930027,-59.99217358
B1A,B1A2Y7,Glace Bay,NS,Urban,46.18895233,-59.9942535
B1A,B1A2Y8,Glace Bay,NS,Urban,46.18882921,-59.99422899
B1A,B1A2Y9,Glace Bay,NS,Urban,46.18599053,-59.99823709
B1A,B1A2Z1,Glace Bay,NS,Urban,46.18864754,-59.99790582
B1A,B1A2Z2,Glace Bay,NS,Urban,46.18360944,-59.99913993
B1A,B1A2Z3,Glace Bay,NS,Urban,46.184921,-60.001608
B1A,B1A2Z4,Glace Bay,NS,Urban,46.18695621,-60.00060765
B1A,B1A2Z5,Glace Bay,NS,Urban,46.18742917,-60.00102857
B1A,B1A2Z6,Glace Bay,NS,Urban,46.18625002,-59.99997594
B1A,B1A2Z7,Glace Bay,NS,Urban,46.19664808,-59.96266085
B1A,B1A2Z8,Glace Bay,NS,Urban,46.19665106,-59.96266155
B1A,B1A2Z9,Glace Bay,NS,Urban,46.19446,-59.965656
B1A,B1A3A1,Glace Bay,NS,Urban,46.194507,-59.966372
B1A,B1A3A2,Glace Bay,NS,Urban,46.195008,-59.965633
B1A,B1A3A3,Glace Bay,NS,Urban,46.1941553,-59.96969403
B1A,B1A3A4,Glace Bay,NS,Urban,46.19299536,-59.96988096
B1A,B1A3A5,Glace Bay,NS,Urban,46.19244438,-59.97137266
B1A,B1A3A6,Glace Bay,NS,Urban,46.19270026,-59.9713
B1A,B1A3A7,Glace Bay,NS,Urban,46.19612996,-59.96863197
B1A,B1A3A8,Glace Bay,NS,Urban,46.19609756,-59.96863779
B1A,B1A3A9,Glace Bay,NS,Urban,46.19473565,-59.97003046
B1A,B1A3B1,Glace Bay,NS,Urban,46.19478486,-59.97001902
B1A,B1A3B2,Glace Bay,NS,Urban,46.19845958,-59.9746895
B1A,B1A3B3,Glace Bay,NS,Urban,46.1980945,-59.97475815
B1A,B1A3B4,Glace Bay,NS,Urban,46.189099,-59.997657
B1A,B1A3B5,Glace Bay,NS,Urban,46.189223,-59.997878
B1A,B1A3B6,Glace Bay,NS,Urban,46.19703611,-59.98807507
B1A,B1A3B7,Glace Bay,NS,Urban,46.1932582,-59.99246584
B1A,B1A3B8,Glace Bay,NS,Urban,46.197061,-59.955177
B1A,B1A3B9,Glace Bay,NS,Urban,46.201529,-59.978938
B1A,B1A3C1,Glace Bay,NS,Urban,46.198832,-59.967443
B1A,B1A3C2,Glace Bay,NS,Urban,46.195482,-59.955911
B1A,B1A3C3,Glace Bay,NS,Urban,46.19664,-59.95597
B1A,B1A3C4,Glace Bay,NS,Urban,46.194898,-59.955527
B1A,B1A3C5,Glace Bay,NS,Urban,46.194352,-59.955165
B1A,B1A3C6,Glace Bay,NS,Urban,46.19425409,-59.95535841
B1A,B1A3C7,Glace Bay,NS,Urban,46.19381406,-59.95497192
B1A,B1A3C8,Glace Bay,NS,Urban,46.138031,-60.195771
B1A,B1A3C9,Glace Bay,NS,Urban,46.194784,-59.958199
B1A,B1A3E1,Glace Bay,NS,Urban,46.19336,-59.95745
B1A,B1A3E2,Glace Bay,NS,Urban,46.19438446,-59.95944653
B1A,B1A3E3,Glace Bay,NS,Urban,46.194365,-59.959693
B1A,B1A3E4,Glace Bay,NS,Urban,46.19409469,-59.95908251
B1A,B1A3E5,Glace Bay,NS,Urban,46.19382771,-59.96003869
B1A,B1A3E6,Glace Bay,NS,Urban,46.19385283,-59.96008045
B1A,B1A3E7,Glace Bay,NS,Urban,46.19337335,-59.9606612
B1A,B1A3E8,Glace Bay,NS,Urban,46.19341412,-59.96072042
B1A,B1A3E9,Glace Bay,NS,Urban,46.19321701,-59.96169224
B1A,B1A3G1,Glace Bay,NS,Urban,46.19314701,-59.96163075
B1A,B1A3G2,Glace Bay,NS,Urban,46.19259564,-59.96239755
B1A,B1A3G3,Glace Bay,NS,Urban,46.19255613,-59.96226712
B1A,B1A3G4,Glace Bay,NS,Urban,46.19155,-59.963235
B1A,B1A3G5,Glace Bay,NS,Urban,46.1916834,-59.96318791
B1A,B1A3G6,Glace Bay,NS,Urban,46.191369,-59.963512
B1A,B1A3G7,Glace Bay,NS,Urban,46.190797,-59.96296
B1A,B1A3G8,Glace Bay,NS,Urban,46.189695,-59.960239
B1A,B1A3G9,Glace Bay,NS,Urban,46.190701,-59.964147
B1A,B1A3H0,Glace Bay,NS,Urban,46.189805,-59.97297
B1A,B1A3H1,Glace Bay,NS,Urban,46.189806,-59.97297
B1A,B1A3H2,Glace Bay,NS,Urban,46.19027397,-59.96476955
B1A,B1A3H3,Glace Bay,NS,Urban,46.18982517,-59.96312613
B1A,B1A3H4,Glace Bay,NS,Urban,46.189997,-59.965096
B1A,B1A3H5,Glace Bay,NS,Urban,46.189997,-59.965096
B1A,B1A3H6,Glace Bay,NS,Urban,46.188783,-59.962944
B1A,B1A3H7,Glace Bay,NS,Urban,46.189207,-59.96348
B1A,B1A3H8,Glace Bay,NS,Urban,46.18538822,-59.97067651
B1A,B1A3H9,Glace Bay,NS,Urban,46.18652301,-59.96595072
B1A,B1A3J1,Glace Bay,NS,Urban,46.18722583,-59.96041228
B1A,B1A3J2,Glace Bay,NS,Urban,46.18702548,-59.96003975
B1A,B1A3J3,Glace Bay,NS,Urban,46.188784,-59.965692
B1A,B1A3J4,Glace Bay,NS,Urban,46.189035,-59.965587
B1A,B1A3J5,Glace Bay,NS,Urban,46.18826444,-59.96594099
B1A,B1A3J6,Glace Bay,NS,Urban,46.18823993,-59.96584507
B1A,B1A3J7,Glace Bay,NS,Urban,46.18771203,-59.9629902
B1A,B1A3J8,Glace Bay,NS,Urban,46.18749488,-59.96264812
B1A,B1A3J9,Glace Bay,NS,Urban,46.1871909,-59.96361021
B1A,B1A3K1,Glace Bay,NS,Urban,46.189631,-59.967458
B1A,B1A3K2,Glace Bay,NS,Urban,46.1898,-59.967208
B1A,B1A3K3,Glace Bay,NS,Urban,46.18986836,-59.96762359
B1A,B1A3K4,Glace Bay,NS,Urban,46.18896,-59.966265
B1A,B1A3K5,Glace Bay,NS,Urban,46.18885657,-59.96746966
B1A,B1A3K6,Glace Bay,NS,Urban,46.18860956,-59.96693151
B1A,B1A3K7,Glace Bay,NS,Urban,46.188364,-59.968326
B1A,B1A3K8,Glace Bay,NS,Urban,46.1881772,-59.96791387
B1A,B1A3K9,Glace Bay,NS,Urban,46.18795167,-59.96741414
B1A,B1A3L1,Glace Bay,NS,Urban,46.18779057,-59.97084032
B1A,B1A3L2,Glace Bay,NS,Urban,46.18753984,-59.97112289
B1A,B1A3L3,Glace Bay,NS,Urban,46.187707,-59.969952
B1A,B1A3L4,Glace Bay,NS,Urban,46.187693,-59.97189
B1A,B1A3L5,Glace Bay,NS,Urban,46.187694,-59.97189
B1A,B1A3L6,Glace Bay,NS,Urban,46.18925106,-59.97304046
B1A,B1A3L7,Glace Bay,NS,Urban,46.18661679,-59.97208034
B1A,B1A3L8,Glace Bay,NS,Urban,46.18608275,-59.97127398
B1A,B1A3L9,Glace Bay,NS,Urban,46.18692187,-59.97254082
B1A,B1A3M1,Glace Bay,NS,Urban,46.18450697,-59.9730291
B1A,B1A3M2,Glace Bay,NS,Urban,46.184738,-59.973173
B1A,B1A3M3,Glace Bay,NS,Urban,46.18520888,-59.97426839
B1A,B1A3M4,Glace Bay,NS,Urban,46.18347338,-59.97400996
B1A,B1A3M5,Glace Bay,NS,Urban,46.18376515,-59.97451328
B1A,B1A3M6,Glace Bay,NS,Urban,46.178712,-59.968441
B1A,B1A3M7,Glace Bay,NS,Urban,46.18125874,-59.96381431
B1A,B1A3M8,Glace Bay,NS,Urban,46.17989623,-59.96897092
B1A,B1A3M9,Glace Bay,NS,Urban,46.179666,-59.969689
B1A,B1A3N1,Glace Bay,NS,Urban,46.17972998,-59.97190328
B1A,B1A3N2,Glace Bay,NS,Urban,46.179879,-59.975191
B1A,B1A3N3,Glace Bay,NS,Urban,46.179613,-59.975238
B1A,B1A3N4,Glace Bay,NS,Urban,46.181437,-59.984758
B1A,B1A3N5,Glace Bay,NS,Urban,46.181811,-59.985298
B1A,B1A3N6,Glace Bay,NS,Urban,46.17895347,-59.97123413
B1A,B1A3N7,Glace Bay,NS,Urban,46.17895347,-59.97124767
B1A,B1A3N8,Glace Bay,NS,Urban,46.17893177,-59.97238374
B1A,B1A3N9,Glace Bay,NS,Urban,46.17893512,-59.97280243
B1A,B1A3P1,Glace Bay,NS,Urban,46.178125,-59.971674
B1A,B1A3P2,Glace Bay,NS,Urban,46.17815407,-59.9728335
B1A,B1A3P3,Glace Bay,NS,Urban,46.177985,-59.969723
B1A,B1A3P4,Glace Bay,NS,Urban,46.178255,-59.969727
B1A,B1A3P5,Glace Bay,NS,Urban,46.17738067,-59.97225598
B1A,B1A3P6,Glace Bay,NS,Urban,46.17739135,-59.97273519
B1A,B1A3P7,Glace Bay,NS,Urban,46.177468,-59.969774
B1A,B1A3P8,Glace Bay,NS,Urban,46.177198,-59.96977
B1A,B1A3P9,Glace Bay,NS,Urban,46.17709,-59.97304
B1A,B1A3R1,Glace Bay,NS,Urban,46.176455,-59.972022
B1A,B1A3R2,Glace Bay,NS,Urban,46.17885184,-59.97900818
B1A,B1A3R3,Glace Bay,NS,Urban,46.17806933,-59.97663957
B1A,B1A3R4,Glace Bay,NS,Urban,46.18014972,-59.98328427
B1A,B1A3R5,Glace Bay,NS,Urban,46.180234,-59.983981
B1A,B1A3R6,Glace Bay,NS,Urban,46.14438182,-60.19452942
B1A,B1A3R7,Glace Bay,NS,Urban,46.1755584,-59.98266624
B1A,B1A3R8,Glace Bay,NS,Urban,46.17562188,-59.98276734
B1A,B1A3R9,Glace Bay,NS,Urban,46.198134,-59.951916
B1A,B1A3S1,Glace Bay,NS,Urban,46.197681,-59.951269
B1A,B1A3S2,Glace Bay,NS,Urban,46.200207,-59.951156
B1A,B1A3S3,Glace Bay,NS,Urban,46.203462,-59.951909
B1A,B1A3S4,Glace Bay,NS,Urban,46.206087,-59.952049
B1A,B1A3S5,Glace Bay,NS,Urban,46.199842,-59.95756
B1A,B1A3S6,Glace Bay,NS,Urban,46.197404,-59.95625
B1A,B1A3S7,Glace Bay,NS,Urban,46.197942,-59.956056
B1A,B1A3S8,Glace Bay,NS,Urban,46.19990686,-59.95477626
B1A,B1A3S9,Glace Bay,NS,Urban,46.20006269,-59.95652773
B1A,B1A3T1,Glace Bay,NS,Urban,46.20033397,-59.95379219
B1A,B1A3T2,Glace Bay,NS,Urban,46.1996944,-59.95450969
B1A,B1A3T3,Glace Bay,NS,Urban,46.19960044,-59.95465045
B1A,B1A3T4,Glace Bay,NS,Urban,46.20075209,-59.95482108
B1A,B1A3T5,Glace Bay,NS,Urban,46.20084114,-59.95603365
B1A,B1A3T6,Glace Bay,NS,Urban,46.19867422,-59.95912559
B1A,B1A3T7,Glace Bay,NS,Urban,46.19853433,-59.95930176
B1A,B1A3T8,Glace Bay,NS,Urban,46.197141,-59.961752
B1A,B1A3T9,Glace Bay,NS,Urban,46.19941293,-59.95960154
B1A,B1A3U8,Sidney,NS,Urban,46.084252,-60.108202
B1A,B1A3V1,Glace Bay,NS,Urban,46.1979523,-59.96148016
B1A,B1A3V2,Glace Bay,NS,Urban,46.205859,-59.952078
B1A,B1A3V3,Glace Bay,NS,Urban,46.205533,-59.952535
B1A,B1A3V4,Glace Bay,NS,Urban,46.20572967,-59.95847563
B1A,B1A3V5,Glace Bay,NS,Urban,46.20430366,-59.9541918
B1A,B1A3V6,Glace Bay,NS,Urban,46.20367769,-59.95500857
B1A,B1A3V7,Glace Bay,NS,Urban,46.20016492,-59.95979144
B1A,B1A3V8,Glace Bay,NS,Urban,46.20003686,-59.95996256
B1A,B1A3V9,Glace Bay,NS,Urban,46.19957977,-59.96059126
B1A,B1A3W1,Glace Bay,NS,Urban,46.199138,-59.963415
B1A,B1A3W2,Glace Bay,NS,Urban,46.197534,-59.962644
B1A,B1A3W3,Glace Bay,NS,Urban,46.19600991,-59.96535807
B1A,B1A3W4,Glace Bay,NS,Urban,46.19651045,-59.96466894
B1A,B1A3W5,Glace Bay,NS,Urban,46.19501448,-59.96671888
B1A,B1A3W6,Glace Bay,NS,Urban,46.195049,-59.966878
B1A,B1A3W7,Glace Bay,NS,Urban,46.11492943,-60.16490019
B1A,B1A3W8,Glace Bay,NS,Urban,46.19481044,-59.96789937
B1A,B1A3W9,Glace Bay,NS,Urban,46.194382,-59.965639
B1A,B1A3X1,Glace Bay,NS,Urban,46.194639,-59.965557
B1A,B1A3X2,Glace Bay,NS,Urban,46.20071028,-59.95907503
B1A,B1A3X3,Glace Bay,NS,Urban,46.20265,-59.956369
B1A,B1A3X4,Glace Bay,NS,Urban,46.20266648,-59.95652279
B1A,B1A3X5,Glace Bay,NS,Urban,46.205048,-59.954689
B1A,B1A3X6,Glace Bay,NS,Urban,46.204245,-59.957028
B1A,B1A3X7,Glace Bay,NS,Urban,46.20616983,-59.9555351
B1A,B1A3X8,Glace Bay,NS,Urban,46.20429646,-59.95593103
B1A,B1A3X9,Glace Bay,NS,Urban,46.21115021,-59.9545799
B1A,B1A3Y1,Glace Bay,NS,Urban,46.2347401,-60.09718885
B1A,B1A3Y2,Glace Bay,NS,Urban,46.20620043,-59.9567352
B1A,B1A3Y3,Glace Bay,NS,Urban,46.20442604,-59.95704504
B1A,B1A3Y4,Glace Bay,NS,Urban,46.204551,-59.956891
B1A,B1A3Y5,Glace Bay,NS,Urban,46.20456778,-59.95800218
B1A,B1A3Y6,Glace Bay,NS,Urban,46.23343122,-60.09155059
B1A,B1A3Y7,Glace Bay,NS,Urban,46.20612058,-59.95777612
B1A,B1A3Y8,Glace Bay,NS,Urban,46.205964,-59.957802
B1A,B1A3Y9,Glace Bay,NS,Urban,46.206103,-59.95765
B1A,B1A3Z1,Glace Bay,NS,Urban,46.20727667,-59.95853339
B1A,B1A3Z2,Glace Bay,NS,Urban,46.207128,-59.958678
B1A,B1A3Z3,Glace Bay,NS,Urban,46.20605658,-59.958727089999996
B1A,B1A3Z4,Glace Bay,NS,Urban,46.200504,-59.95979
B1A,B1A3Z5,Glace Bay,NS,Urban,46.20081141,-59.96002927
B1A,B1A3Z6,Glace Bay,NS,Urban,46.20212769,-59.96051658
B1A,B1A3Z7,Glace Bay,NS,Urban,46.21177339,-60.02297055
B1A,B1A3Z8,Glace Bay,NS,Urban,46.20104,-59.961161
B1A,B1A3Z9,Glace Bay,NS,Urban,46.20245892,-59.96525191
B1A,B1A4A1,Glace Bay,NS,Urban,46.20202383,-59.96145715
B1A,B1A4A2,Glace Bay,NS,Urban,46.20203809,-59.96236365
B1A,B1A4A3,Glace Bay,NS,Urban,46.20214957,-59.96240335
B1A,B1A4A4,Glace Bay,NS,Urban,46.200335,-59.963836
B1A,B1A4A5,Glace Bay,NS,Urban,46.200284,-59.963585
B1A,B1A4A6,Glace Bay,NS,Urban,46.196716,-59.965585
B1A,B1A4A7,Glace Bay,NS,Urban,46.196666,-59.965341
B1A,B1A4A8,Glace Bay,NS,Urban,46.197009,-59.966133
B1A,B1A4A9,Glace Bay,NS,Urban,46.198709,-59.965776
B1A,B1A4B1,Glace Bay,NS,Urban,46.200897,-59.965322
B1A,B1A4B2,Glace Bay,NS,Urban,46.20068024,-59.96578544
B1A,B1A4B3,Glace Bay,NS,Urban,46.19978768,-59.96694519
B1A,B1A4B4,Glace Bay,NS,Urban,46.196765,-59.967827
B1A,B1A4B5,Glace Bay,NS,Urban,46.196734,-59.967579
B1A,B1A4B6,Glace Bay,NS,Urban,46.198809,-59.967207
B1A,B1A4B7,Glace Bay,NS,Urban,46.19962719,-59.96716987
B1A,B1A4B8,Glace Bay,NS,Urban,46.19989142,-59.96710927
B1A,B1A4B9,Glace Bay,NS,Urban,46.19732929,-59.9696319
B1A,B1A4C1,Glace Bay,NS,Urban,46.19684015,-59.96978988
B1A,B1A4C2,Glace Bay,NS,Urban,46.19983,-59.968848
B1A,B1A4C3,Glace Bay,NS,Urban,46.19728575,-59.97065793
B1A,B1A4C4,Glace Bay,NS,Urban,46.1977144,-59.97058135
B1A,B1A4C5,Glace Bay,NS,Urban,46.20898,-59.964266
B1A,B1A4C6,Glace Bay,NS,Urban,46.207167,-59.965522
B1A,B1A4C7,Glace Bay,NS,Urban,46.209591,-59.964963
B1A,B1A4C8,Glace Bay,NS,Urban,46.20984,-59.96545
B1A,B1A4C9,Glace Bay,NS,Urban,46.213285,-59.957204
B1A,B1A4E1,Glace Bay,NS,Urban,46.211471,-59.960119
B1A,B1A4E2,Glace Bay,NS,Urban,46.211223,-59.961732
B1A,B1A4E3,Glace Bay,NS,Urban,46.212293,-59.958963
B1A,B1A4E4,Glace Bay,NS,Urban,46.214005,-59.957807
B1A,B1A4E5,Glace Bay,NS,Urban,46.213769,-59.957684
B1A,B1A4E6,Glace Bay,NS,Urban,46.21527973,-59.95479833
B1A,B1A4E7,Glace Bay,NS,Urban,46.212563,-59.96148
B1A,B1A4E8,Glace Bay,NS,Urban,46.211966,-59.96089
B1A,B1A4E9,Glace Bay,NS,Urban,46.211046,-59.96338
B1A,B1A4G1,Glace Bay,NS,Urban,46.21454168,-59.95826262
B1A,B1A4G3,Glace Bay,NS,Urban,46.21457785,-59.95818677
B1A,B1A4G4,Glace Bay,NS,Urban,46.21530144,-59.95665939
B1A,B1A4G5,Glace Bay,NS,Urban,46.212311,-59.962938
B1A,B1A4G6,Glace Bay,NS,Urban,46.249356,-60.129603
B1A,B1A4G7,Glace Bay,NS,Urban,46.249402,-60.129575
B1A,B1A4G8,Glace Bay,NS,Urban,46.24985768,-60.12929156
B1A,B1A4G9,Glace Bay,NS,Urban,46.21506282,-59.95901138
B1A,B1A4H1,Glace Bay,NS,Urban,46.21711491,-59.95433388
B1A,B1A4H2,Glace Bay,NS,Urban,46.21509568,-59.95894301
B1A,B1A4H3,Glace Bay,NS,Urban,46.212911,-59.963574
B1A,B1A4H4,Glace Bay,NS,Urban,46.21288,-59.963641
B1A,B1A4H5,Glace Bay,NS,Urban,46.212203,-59.9653
B1A,B1A4H6,Glace Bay,NS,Urban,46.211975,-59.965161
B1A,B1A4H7,Glace Bay,NS,Urban,46.21566792,-59.95962736
B1A,B1A4H8,Glace Bay,NS,Urban,46.21570078,-59.95955899
B1A,B1A4H9,Glace Bay,NS,Urban,46.21307089,-59.96454028
B1A,B1A4J1,Glace Bay,NS,Urban,46.2130234,-59.96463
B1A,B1A4J2,Glace Bay,NS,Urban,46.21164635,-59.96723171
B1A,B1A4J3,Glace Bay,NS,Urban,46.21159886,-59.96732142
B1A,B1A4J4,Glace Bay,NS,Urban,46.213356,-59.966602
B1A,B1A4J5,Glace Bay,NS,Urban,46.213027,-59.966683
B1A,B1A4J6,Glace Bay,NS,Urban,46.2170032,-59.9586363
B1A,B1A4J7,Glace Bay,NS,Urban,46.21632245,-59.960086
B1A,B1A4J8,Glace Bay,NS,Urban,46.21428,-59.964595
B1A,B1A4J9,Glace Bay,NS,Urban,46.214048,-59.964464
B1A,B1A4K1,Glace Bay,NS,Urban,46.21488863,-59.96495272
B1A,B1A4K2,Glace Bay,NS,Urban,46.212923,-59.969395
B1A,B1A4K3,Glace Bay,NS,Urban,46.21375137,-59.96725366
B1A,B1A4K4,Glace Bay,NS,Urban,46.21693529,-59.96061979
B1A,B1A4K5,Glace Bay,NS,Urban,46.2146884,-59.96537893
B1A,B1A4K6,Glace Bay,NS,Urban,46.216498,-59.963079
B1A,B1A4K7,Glace Bay,NS,Urban,46.216622,-59.963439
B1A,B1A4K8,Glace Bay,NS,Urban,46.2152444,-59.96607974
B1A,B1A4K9,Glace Bay,NS,Urban,46.21528284,-59.965998
B1A,B1A4L1,Glace Bay,NS,Urban,46.21698262,-59.96424581
B1A,B1A4L2,Glace Bay,NS,Urban,46.21585046,-59.96665699
B1A,B1A4L3,Glace Bay,NS,Urban,46.21649837,-59.96527491
B1A,B1A4L4,Glace Bay,NS,Urban,46.21701512,-59.9641784
B1A,B1A4L5,Glace Bay,NS,Urban,46.217699,-59.964826
B1A,B1A4L6,Glace Bay,NS,Urban,46.21691819,-59.96624367
B1A,B1A4L7,Glace Bay,NS,Urban,46.21755,-59.96468
B1A,B1A4L8,Glace Bay,NS,Urban,46.21639,-59.967025
B1A,B1A4L9,Glace Bay,NS,Urban,46.218334,-59.965411
B1A,B1A4M1,Glace Bay,NS,Urban,46.21762236,-59.96671717
B1A,B1A4M2,Glace Bay,NS,Urban,46.218079,-59.965325
B1A,B1A4M3,Glace Bay,NS,Urban,46.21750527,-59.96698998
B1A,B1A4M4,Glace Bay,NS,Urban,46.20596062,-59.97037606
B1A,B1A4M5,Glace Bay,NS,Urban,46.20586429,-59.97039679
B1A,B1A4M6,Glace Bay,NS,Urban,46.21007087,-59.96947637
B1A,B1A4M7,Glace Bay,NS,Urban,46.21141183,-59.97132706
B1A,B1A4M8,Glace Bay,NS,Urban,46.21212235,-59.97118476
B1A,B1A4M9,Glace Bay,NS,Urban,46.20985779,-59.9716288
B1A,B1A4N1,Glace Bay,NS,Urban,46.21582177,-59.96972398
B1A,B1A4N2,Glace Bay,NS,Urban,46.2159425,-59.96969591
B1A,B1A4N3,Glace Bay,NS,Urban,46.21702914,-59.96944335
B1A,B1A4N4,Glace Bay,NS,Urban,46.21720408,-59.96937183
B1A,B1A4N5,Glace Bay,NS,Urban,46.199175,-59.976037
B1A,B1A4N6,Glace Bay,NS,Urban,46.207325,-59.974651
B1A,B1A4N7,Glace Bay,NS,Urban,46.207269,-59.974408
B1A,B1A4N8,Glace Bay,NS,Urban,46.211768,-59.973682
B1A,B1A4N9,Glace Bay,NS,Urban,46.211727,-59.973435
B1A,B1A4P1,Glace Bay,NS,Urban,46.213352,-59.973059
B1A,B1A4P2,Glace Bay,NS,Urban,46.214114,-59.972881
B1A,B1A4P3,Glace Bay,NS,Urban,46.214748,-59.972975
B1A,B1A4P4,Glace Bay,NS,Urban,46.21521,-59.97264
B1A,B1A4P5,Glace Bay,NS,Urban,46.21527,-59.972882
B1A,B1A4P6,Glace Bay,NS,Urban,46.217826,-59.971949
B1A,B1A4P7,Glace Bay,NS,Urban,46.21552705,-59.97565324
B1A,B1A4P8,Glace Bay,NS,Urban,46.21598115,-59.97555461
B1A,B1A4P9,Glace Bay,NS,Urban,46.21689109,-59.97647639
B1A,B1A4R1,Glace Bay,NS,Urban,46.21855232,-59.9761855
B1A,B1A4R2,Glace Bay,NS,Urban,46.2159824,-59.97800579
B1A,B1A4R3,Glace Bay,NS,Urban,46.21558392,-59.97801131
B1A,B1A4R4,Glace Bay,NS,Urban,46.214379,-59.97905
B1A,B1A4R5,Glace Bay,NS,Urban,46.213852,-59.979241
B1A,B1A4R6,Glace Bay,NS,Urban,46.214644,-59.980043
B1A,B1A4R7,Glace Bay,NS,Urban,46.203823,-59.984062
B1A,B1A4R8,Glace Bay,NS,Urban,46.203054,-59.983966
B1A,B1A4R9,Glace Bay,NS,Urban,46.209482,-59.988185
B1A,B1A4S1,Glace Bay,NS,Urban,46.209615,-59.988402
B1A,B1A4S2,Glace Bay,NS,Urban,46.21420408,-59.98685122
B1A,B1A4S3,Glace Bay,NS,Urban,46.21661121,-59.98650988
B1A,B1A4S4,Glace Bay,NS,Urban,46.205185,-59.990383
B1A,B1A4S5,Glace Bay,NS,Urban,46.205376,-59.990558
B1A,B1A4S6,Glace Bay,NS,Urban,46.206353,-59.991669
B1A,B1A4S7,Glace Bay,NS,Urban,46.206523,-59.991861
B1A,B1A4S8,Glace Bay,NS,Urban,46.19348412,-60.03592641
B1A,B1A4S9,Glace Bay,NS,Urban,46.19111092,-60.04293135
B1A,B1A4T1,Glace Bay,NS,Urban,46.20726605,-59.99691638
B1A,B1A4T2,Glace Bay,NS,Urban,46.2075828,-59.99631745
B1A,B1A4T3,Glace Bay,NS,Urban,46.210063,-59.99759
B1A,B1A4T4,NA,NS,Urban,46.204427,-59.993495
B1A,B1A4T5,Glace Bay,NS,Urban,46.209604,-59.996224
B1A,B1A4T6,Glace Bay,NS,Urban,46.209329,-59.996198
B1A,B1A4T7,Glace Bay,NS,Urban,46.21247189,-59.99422866
B1A,B1A4T8,Glace Bay,NS,Urban,46.21261248,-59.9942062
B1A,B1A4T9,Glace Bay,NS,Urban,46.21261744,-59.99510571
B1A,B1A4V1,Glace Bay,NS,Urban,46.21211164,-59.99556284
B1A,B1A4V2,Glace Bay,NS,Urban,46.21241569,-59.9951503
B1A,B1A4V3,Glace Bay,NS,Urban,46.187321,-59.966107
B1A,B1A4V4,Glace Bay,NS,Urban,46.190933,-59.966381
B1A,B1A4V5,Glace Bay,NS,Urban,46.191199,-59.96633
B1A,B1A4V6,Glace Bay,NS,Urban,46.19280226,-59.96298356
B1A,B1A4V7,Glace Bay,NS,Urban,46.19288804,-59.96346864
B1A,B1A4V8,Glace Bay,NS,Urban,46.19295953,-59.96387287
B1A,B1A4V9,Glace Bay,NS,Urban,46.193144,-59.96531579
B1A,B1A4W1,Glace Bay,NS,Urban,46.19280217,-59.96787136
B1A,B1A4W2,Glace Bay,NS,Urban,46.19281968,-59.96777519
B1A,B1A4W3,Glace Bay,NS,Urban,46.19260214,-59.96925386
B1A,B1A4W4,Glace Bay,NS,Urban,46.19243985,-59.97047634
B1A,B1A4W5,Glace Bay,NS,Urban,46.1922869,-59.97169891
B1A,B1A4W6,Glace Bay,NS,Urban,46.1897859,-59.98981517
B1A,B1A4W7,Glace Bay,NS,Urban,46.18975016,-59.99014005
B1A,B1A4W8,Glace Bay,NS,Urban,46.18942202,-59.99264544
B1A,B1A4W9,Glace Bay,NS,Urban,46.18919856,-59.99430252
B1A,B1A4X0,Glace Bay,NS,Urban,46.202766,-59.955412
B1A,B1A4X1,Glace Bay,NS,Urban,46.18870806,-59.99790445
B1A,B1A4X2,Glace Bay,NS,Urban,46.18803624,-60.00026126
B1A,B1A4X3,Glace Bay,NS,Urban,46.18635318,-60.00346456
B1A,B1A4X4,Glace Bay,NS,Urban,46.19766678,-59.94915487
B1A,B1A4X5,Glace Bay,NS,Urban,46.19739782,-59.95076378
B1A,B1A4X6,Glace Bay,NS,Urban,46.19724356,-59.95297285
B1A,B1A4X7,Glace Bay,NS,Urban,46.19709291,-59.95591323
B1A,B1A4X8,Glace Bay,NS,Urban,46.19715658,-59.95536615
B1A,B1A4X9,Glace Bay,NS,Urban,46.196845,-59.958517
B1A,B1A4Y1,Glace Bay,NS,Urban,46.19682208,-59.95907347
B1A,B1A4Y2,Glace Bay,NS,Urban,46.19673739,-59.96069771
B1A,B1A4Y3,Glace Bay,NS,Urban,46.19668379,-59.96189158
B1A,B1A4Y4,Glace Bay,NS,Urban,46.19667804,-59.96320555
B1A,B1A4Y5,Glace Bay,NS,Urban,46.1972391,-59.96321927
B1A,B1A4Y6,Glace Bay,NS,Urban,46.19666447,-59.9644569
B1A,B1A4Y7,Glace Bay,NS,Urban,46.19664432,-59.96523349
B1A,B1A4Y8,Glace Bay,NS,Urban,46.19663815,-59.96564467
B1A,B1A4Y9,Glace Bay,NS,Urban,46.19663996,-59.96615242
B1A,B1A4Z1,Glace Bay,NS,Urban,46.19664684,-59.96808184
B1A,B1A4Z2,Glace Bay,NS,Urban,46.19664948,-59.96867334
B1A,B1A4Z3,Glace Bay,NS,Urban,46.19668707,-59.96982404
B1A,B1A4Z4,Glace Bay,NS,Urban,46.19671265,-59.96991356
B1A,B1A4Z5,Glace Bay,NS,Urban,46.19698242,-59.97083216
B1A,B1A4Z6,Glace Bay,NS,Urban,46.19852878,-59.97493252
B1A,B1A4Z7,Glace Bay,NS,Urban,46.19926233,-59.97838097
B1A,B1A4Z8,Glace Bay,NS,Urban,46.19902952,-59.97698189
B1A,B1A4Z9,Glace Bay,NS,Urban,46.20043859,-59.98134568
B1A,B1A5A1,Glace Bay,NS,Urban,46.20206205,-59.98414278
B1A,B1A5A2,Glace Bay,NS,Urban,46.20451804,-59.98837429
B1A,B1A5A3,Glace Bay,NS,Urban,46.20547546,-59.99002387
B1A,B1A5A4,Glace Bay,NS,Urban,46.20634963,-59.99153
B1A,B1A5A5,Glace Bay,NS,Urban,46.20777324,-59.99399244
B1A,B1A5A6,Glace Bay,NS,Urban,46.20863389,-59.99543751
B1A,B1A5A7,Glace Bay,NS,Urban,46.20991597,-59.99706641
B1A,B1A5A8,Glace Bay,NS,Urban,46.2102909,-59.99768927
B1A,B1A5A9,Glace Bay,NS,Urban,46.197682,-59.951269
B1A,B1A5B1,Glace Bay,NS,Urban,46.202932,-59.951996
B1A,B1A5B2,Glace Bay,NS,Urban,46.197256,-59.955215
B1A,B1A5B3,Glace Bay,NS,Urban,46.197365,-59.954986
B1A,B1A5B4,Glace Bay,NS,Urban,46.198267,-59.955362
B1A,B1A5B5,Glace Bay,NS,Urban,46.198516,-59.955771
B1A,B1A5B6,Glace Bay,NS,Urban,46.201607,-59.957422
B1A,B1A5B7,Glace Bay,NS,Urban,46.20110705,-59.95730755
B1A,B1A5B8,Glace Bay,NS,Urban,46.198256,-59.95663
B1A,B1A5B9,Glace Bay,NS,Urban,46.19998098,-59.95880056
B1A,B1A5C1,Glace Bay,NS,Urban,46.198324,-59.957648
B1A,B1A5C2,Glace Bay,NS,Urban,46.19725363,-59.95839677
B1A,B1A5C3,Glace Bay,NS,Urban,46.199677,-59.959328
B1A,B1A5C4,Glace Bay,NS,Urban,46.19965565,-59.9594828
B1A,B1A5C5,Glace Bay,NS,Urban,46.19825,-59.961392
B1A,B1A5C6,Glace Bay,NS,Urban,46.19893536,-59.96279041
B1A,B1A5C7,Glace Bay,NS,Urban,46.198523,-59.96691
B1A,B1A5C8,Glace Bay,NS,Urban,46.198523,-59.966061
B1A,B1A5C9,Glace Bay,NS,Urban,46.12525589,-60.19600604
B1A,B1A5E1,Glace Bay,NS,Urban,46.19956708,-59.96847966
B1A,B1A5E2,Glace Bay,NS,Urban,46.199139,-59.963415
B1A,B1A5E3,Glace Bay,NS,Urban,46.20075224,-59.96160909
B1A,B1A5E4,Glace Bay,NS,Urban,46.20131716,-59.96373982
B1A,B1A5E5,Glace Bay,NS,Urban,46.20142511,-59.96418613
B1A,B1A5E6,Glace Bay,NS,Urban,46.20164471,-59.96503605
B1A,B1A5E7,Glace Bay,NS,Urban,46.20188508,-59.96733471
B1A,B1A5E8,Glace Bay,NS,Urban,46.20208963,-59.96939135
B1A,B1A5E9,Glace Bay,NS,Urban,46.20182273,-59.96199084
B1A,B1A5G1,Glace Bay,NS,Urban,46.20181893,-59.96213755
B1A,B1A5G2,Glace Bay,NS,Urban,46.20160569,-59.96338646
B1A,B1A5G3,Glace Bay,NS,Urban,46.203396,-59.961857
B1A,B1A5G4,Glace Bay,NS,Urban,46.203657,-59.961792
B1A,B1A5G5,Glace Bay,NS,Urban,46.20589161,-59.971698429999996
B1A,B1A5G6,Glace Bay,NS,Urban,46.20990926,-59.97116696
B1A,B1A5G7,Glace Bay,NS,Urban,46.20986567,-59.97080345
B1A,B1A5G8,Glace Bay,NS,Urban,46.21148393,-59.97363004
B1A,B1A5G9,Glace Bay,NS,Urban,46.211317,-59.9734
B1A,B1A5H1,Glace Bay,NS,Urban,46.20263772,-59.95647479
B1A,B1A5H2,Glace Bay,NS,Urban,46.20249392,-59.95623483
B1A,B1A5H3,Glace Bay,NS,Urban,46.20354191,-59.95476017
B1A,B1A5H4,Glace Bay,NS,Urban,46.20347402,-59.95463598
B1A,B1A5H5,Glace Bay,NS,Urban,46.2043779,-59.95386167
B1A,B1A5H6,Glace Bay,NS,Urban,46.20429565,-59.95373573
B1A,B1A5H7,Glace Bay,NS,Urban,46.20367273,-59.95833003
B1A,B1A5H8,Glace Bay,NS,Urban,46.20369859,-59.95844355
B1A,B1A5H9,Glace Bay,NS,Urban,46.20329066,-59.95651739
B1A,B1A5J1,Glace Bay,NS,Urban,46.20341704,-59.95713992
B1A,B1A5J2,Glace Bay,NS,Urban,46.20354343,-59.95776244
B1A,B1A5J3,Glace Bay,NS,Urban,46.20433922,-59.95842063
B1A,B1A5J4,Glace Bay,NS,Urban,46.205555,-59.955406
B1A,B1A5J5,Glace Bay,NS,Urban,46.20571426,-59.95561046
B1A,B1A5J6,Glace Bay,NS,Urban,46.207393,-59.958331
B1A,B1A5J7,Glace Bay,NS,Urban,46.20781469,-59.95826413
B1A,B1A5J8,Glace Bay,NS,Urban,46.207779,-59.953573
B1A,B1A5J9,Glace Bay,NS,Urban,46.207487,-59.953373
B1A,B1A5K1,Glace Bay,NS,Urban,46.20732934,-59.95850703
B1A,B1A5K2,Glace Bay,NS,Urban,46.13361976,-60.18074482
B1A,B1A5K3,Glace Bay,NS,Urban,46.208459,-59.95483
B1A,B1A5K4,Glace Bay,NS,Urban,46.208275,-59.952987
B1A,B1A5K5,Glace Bay,NS,Urban,46.208144,-59.951437
B1A,B1A5K6,Glace Bay,NS,Urban,46.208474,-59.954984
B1A,B1A5K7,Glace Bay,NS,Urban,46.20852833,-59.95572912
B1A,B1A5K8,Glace Bay,NS,Urban,46.20922087,-59.95609688
B1A,B1A5K9,Glace Bay,NS,Urban,46.20913149,-59.95502904
B1A,B1A5L1,Glace Bay,NS,Urban,46.20893539,-59.95286646
B1A,B1A5L2,Glace Bay,NS,Urban,46.2089278,-59.95272507
B1A,B1A5L3,Glace Bay,NS,Urban,46.20911749,-59.95487457
B1A,B1A5L4,Glace Bay,NS,Urban,46.20920597,-59.95591891
B1A,B1A5L5,Glace Bay,NS,Urban,46.20992192,-59.95613457
B1A,B1A5L6,Glace Bay,NS,Urban,46.20980994,-59.95489691
B1A,B1A5L7,Glace Bay,NS,Urban,46.20959907,-59.95243534
B1A,B1A5L8,Glace Bay,NS,Urban,46.20958736,-59.95227915
B1A,B1A5L9,Glace Bay,NS,Urban,46.209646,-59.954589
B1A,B1A5M1,Glace Bay,NS,Urban,46.20947072,-59.95496297
B1A,B1A5M2,Glace Bay,NS,Urban,46.21030606,-59.95217084
B1A,B1A5M3,Glace Bay,NS,Urban,46.21043323,-59.95440771
B1A,B1A5M4,Glace Bay,NS,Urban,46.21030877,-59.95194199
B1A,B1A5M5,Glace Bay,NS,Urban,46.2104465,-59.95458563
B1A,B1A5M6,Glace Bay,NS,Urban,46.210096,-59.953649
B1A,B1A5M7,Glace Bay,NS,Urban,46.21115121,-59.9545799
B1A,B1A5M8,Glace Bay,NS,Urban,46.21112135,-59.95415116
B1A,B1A5M9,Glace Bay,NS,Urban,46.210845,-59.952479
B1A,B1A5N1,Glace Bay,NS,Urban,46.21132823,-59.96750228
B1A,B1A5N2,Glace Bay,NS,Urban,46.208977,-59.964196
B1A,B1A5N3,Glace Bay,NS,Urban,46.21126568,-59.96748595
B1A,B1A5N4,Glace Bay,NS,Urban,46.212924,-59.969395
B1A,B1A5N5,Glace Bay,NS,Urban,46.19789253,-60.02530562
B1A,B1A5N6,Glace Bay,NS,Urban,46.21390155,-59.97266181
B1A,B1A5N7,Glace Bay,NS,Urban,46.21379595,-59.97172585
B1A,B1A5N8,Glace Bay,NS,Urban,46.21464204,-59.97318606
B1A,B1A5N9,Glace Bay,NS,Urban,46.21464815,-59.97326289
B1A,B1A5P1,Glace Bay,NS,Urban,46.211096,-59.962105
B1A,B1A5P2,Glace Bay,NS,Urban,46.211989,-59.962984
B1A,B1A5P3,Glace Bay,NS,Urban,46.211173,-59.961579
B1A,B1A5P4,NA,NS,Urban,46.211447,-59.959761
B1A,B1A5P5,Glace Bay,NS,Urban,46.212925,-59.969395
B1A,B1A5P6,Glace Bay,NS,Urban,46.215378,-59.965979
B1A,B1A5P7,Glace Bay,NS,Urban,46.212926,-59.969395
B1A,B1A5P8,Glace Bay,NS,Urban,46.214649,-59.965604
B1A,B1A5P9,Glace Bay,NS,Urban,46.214195,-59.965154
B1A,B1A5R1,Glace Bay,NS,Urban,46.213448,-59.964412
B1A,B1A5R2,Glace Bay,NS,Urban,46.212269,-59.963253
B1A,B1A5R3,Glace Bay,NS,Urban,46.217543,-59.965167
B1A,B1A5R4,Glace Bay,NS,Urban,46.21537715,-59.96287236
B1A,B1A5R5,Glace Bay,NS,Urban,46.21240937,-59.95993304
B1A,B1A5R6,Glace Bay,NS,Urban,46.21785178,-59.9679188
B1A,B1A5R7,Glace Bay,NS,Urban,46.217048,-59.968053
B1A,B1A5R8,Glace Bay,NS,Urban,46.216786,-59.968167
B1A,B1A5R9,Glace Bay,NS,Urban,46.21496363,-59.9666675
B1A,B1A5S1,Glace Bay,NS,Urban,46.21468287,-59.96725526
B1A,B1A5S2,Glace Bay,NS,Urban,46.21510972,-59.97271537
B1A,B1A5S3,Glace Bay,NS,Urban,46.21511534,-59.97277597
B1A,B1A5S4,Glace Bay,NS,Urban,46.21530877,-59.97675387
B1A,B1A5S5,Glace Bay,NS,Urban,46.21527675,-59.97691197
B1A,B1A5S6,Glace Bay,NS,Urban,46.2150291,-59.97813471
B1A,B1A5S7,Glace Bay,NS,Urban,46.2147587,-59.97948581
B1A,B1A5S8,Glace Bay,NS,Urban,46.21441464,-59.98123696
B1A,B1A5S9,Glace Bay,NS,Urban,46.21286063,-59.98909126
B1A,B1A5T1,Glace Bay,NS,Urban,46.21292991,-59.98871385
B1A,B1A5T2,Glace Bay,NS,Urban,46.21241669,-59.9951503
B1A,B1A5T3,Glace Bay,NS,Urban,46.21247601,-59.99567217
B1A,B1A5T4,Glace Bay,NS,Urban,46.21427552,-59.9945385
B1A,B1A5T5,Glace Bay,NS,Urban,46.21429873,-59.99473409
B1A,B1A5T6,Glace Bay,NS,Urban,46.18065041,-59.96837934
B1A,B1A5T7,Glace Bay,NS,Urban,46.18058255,-59.96824881
B1A,B1A5T8,Glace Bay,NS,Urban,46.197683,-59.951269
B1A,B1A5T9,Glace Bay,NS,Urban,46.216337,-59.92676
B1A,B1A5V1,Glace Bay,NS,Urban,46.197684,-59.951269
B1A,B1A5V2,Glace Bay,NS,Urban,46.202286,-59.953728
B1A,B1A5V3,Glace Bay,NS,Urban,46.196145,-59.959815
B1A,B1A5V4,Glace Bay,NS,Urban,46.195065,-59.96311
B1A,B1A5V5,Glace Bay,NS,Urban,46.196146,-59.959815
B1A,B1A5V6,Glace Bay,NS,Urban,46.210827,-59.998321
B1A,B1A5V7,Glace Bay,NS,Urban,46.19874474,-59.96244747
B1A,B1A5V8,Glace Bay,NS,Urban,46.196147,-59.959815
B1A,B1A5V9,Glace Bay,NS,Urban,46.2122264,-59.99212652
B1A,B1A5W1,Glace Bay,NS,Urban,46.21208609,-59.99330431
B1A,B1A5W2,Glace Bay,NS,Urban,46.21202678,-59.993313
B1A,B1A5W3,Glace Bay,NS,Urban,46.21072,-59.998557
B1A,B1A5W4,Glace Bay,NS,Urban,46.18477052,-59.98776408
B1A,B1A5W5,Glace Bay,NS,Urban,46.18980462,-59.98972182
B1A,B1A5W6,Glace Bay,NS,Urban,46.195982,-59.953301
B1A,B1A5W7,Glace Bay,NS,Urban,46.184283,-59.945276
B1A,B1A5W8,Glace Bay,NS,Urban,46.21582554,-59.95650992
B1A,B1A5W9,Glace Bay,NS,Urban,46.21457972,-59.99385371
B1A,B1A5X1,Glace Bay,NS,Urban,46.19044841,-59.97006537
B1A,B1A5X2,Glace Bay,NS,Urban,46.197772,-59.98716
B1A,B1A5X3,Glace Bay,NS,Urban,46.17995734,-59.95811251
B1A,B1A5X4,Glace Bay,NS,Urban,46.215302,-59.959171
B1A,B1A5X5,Glace Bay,NS,Urban,46.207788,-59.952912
B1A,B1A5X6,Glace Bay,NS,Urban,46.21193783,-59.98742778
B1A,B1A5X7,Glace Bay,NS,Urban,46.21174961,-59.95924049
B1A,B1A5X8,Glace Bay,NS,Urban,46.18791795,-59.96888476
B1A,B1A5X9,Glace Bay,NS,Urban,46.195774,-59.953461
B1A,B1A5Y1,Glace Bay,NS,Urban,46.20436861,-59.95682936
B1A,B1A5Y2,Glace Bay,NS,Urban,46.18423544,-59.95470438
B1A,B1A5Y3,Glace Bay,NS,Urban,46.184254,-59.954895
B1A,B1A5Y4,Glace Bay,NS,Urban,46.18328248,-59.95596596
B1A,B1A5Y5,Glace Bay,NS,Urban,46.18355496,-59.95719041
B1A,B1A5Y6,Glace Bay,NS,Urban,46.18351183,-59.95712916
B1A,B1A5Y7,Glace Bay,NS,Urban,46.18265251,-59.955876430000004
B1A,B1A5Y8,Glace Bay,NS,Urban,46.183554,-59.955666
B1A,B1A5Y9,Glace Bay,NS,Urban,46.18376918,-59.95394077
B1A,B1A5Z1,Glace Bay,NS,Urban,46.21826074,-59.97192153
B1A,B1A5Z2,Glace Bay,NS,Urban,46.189227,-59.9668
B1A,B1A5Z3,Glace Bay,NS,Urban,46.18993352,-59.95248868
B1A,B1A5Z4,Glace Bay,NS,Urban,46.211049,-59.96338
B1A,B1A5Z5,Glace Bay,NS,Urban,46.177781,-59.973227
B1A,B1A5Z6,Glace Bay,NS,Urban,46.214882,-59.96547
B1A,B1A5Z7,Glace Bay,NS,Urban,46.206655,-59.98982
B1A,B1A5Z8,Glace Bay,NS,Urban,46.206673,-59.989086
B1A,B1A5Z9,Glace Bay,NS,Urban,46.18140823,-59.9543973
B1A,B1A6A1,Glace Bay,NS,Urban,46.21820025,-59.97152199
B1A,B1A6A2,Glace Bay,NS,Urban,46.185686,-59.948761
B1A,B1A6A3,Glace Bay,NS,Urban,46.185396,-59.9739712
B1A,B1A6A4,Glace Bay,NS,Urban,46.18231123,-59.9554783
B1A,B1A6A5,Glace Bay,NS,Urban,46.18119417,-59.95562488
B1A,B1A6A6,Glace Bay,NS,Urban,46.21404879,-59.98169067
B1A,B1A6A7,Glace Bay,NS,Urban,46.21345588,-59.98138126
B1A,B1A6A8,Glace Bay,NS,Urban,46.209623,-59.965001
B1A,B1A6A9,Glace Bay,NS,Urban,46.185882,-59.948586
B1A,B1A6B1,Glace Bay,NS,Urban,46.198032,-59.987016
B1A,B1A6B2,Glace Bay,NS,Urban,46.21328009,-59.99778248
B1A,B1A6B3,Glace Bay,NS,Urban,46.19402632,-59.94361593
B1A,B1A6B4,Glace Bay,NS,Urban,46.197722,-59.959177
B1A,B1A6B5,Glace Bay,NS,Urban,46.19482075,-59.95965865
B1A,B1A6B6,Glace Bay,NS,Urban,46.21230638,-59.99211049
B1A,B1A6B7,Glace Bay,NS,Urban,46.20720821,-59.95536187
B1A,B1A6B8,Glace Bay,NS,Urban,46.187388,-59.945478
B1A,B1A6B9,Glace Bay,NS,Urban,46.195126,-59.954044
B1A,B1A6C1,Glace Bay,NS,Urban,46.18790298,-59.94615443
B1A,B1A6C2,Glace Bay,NS,Urban,46.18090111,-59.9574351
B1A,B1A6C3,Glace Bay,NS,Urban,46.1763204,-59.96595381
B1A,B1A6C4,Glace Bay,NS,Urban,46.17626603,-59.96587171
B1A,B1A6C5,Glace Bay,NS,Urban,46.194654,-59.966103
B1A,B1A6C6,Glace Bay,NS,Urban,46.18981827,-59.98633889
B1A,B1A6C7,Glace Bay,NS,Urban,46.1887109,-59.98696753
B1A,B1A6C8,Glace Bay,NS,Urban,46.21509188,-59.96259305
B1A,B1A6C9,Glace Bay,NS,Urban,46.197685,-59.951269
B1A,B1A6E1,Glace Bay,NS,Urban,46.19501125,-59.96996643
B1A,B1A6E2,Glace Bay,NS,Urban,46.2024136,-59.970481
B1A,B1A6E3,Glace Bay,NS,Urban,46.202274,-59.970378
B1A,B1A6E4,Glace Bay,NS,Urban,46.20005525,-59.95656405
B1A,B1A6E5,Glace Bay,NS,Urban,46.209216,-59.964481
B1A,B1A6E6,Glace Bay,NS,Urban,46.209913,-59.997384
B1A,B1A6E7,Glace Bay,NS,Urban,46.18527209,-59.93803607
B1A,B1A6E8,Glace Bay,NS,Urban,46.197686,-59.951269
B1A,B1A6E9,Glace Bay,NS,Urban,46.211328,-59.9575
B1A,B1A6G1,Glace Bay,NS,Urban,46.186852,-59.947306
B1A,B1A6G2,Glace Bay,NS,Urban,46.20716637,-59.97456352
B1A,B1A6G3,Glace Bay,NS,Urban,46.17598773,-59.96606605
B1A,B1A6G4,Glace Bay,NS,Urban,46.197687,-59.951269
B1A,B1A6G5,Glace Bay,NS,Urban,46.20225441,-59.97090312
B1A,B1A6G6,Glace Bay,NS,Urban,46.187389,-59.945478
B1A,B1A6G7,Glace Bay,NS,Urban,46.18366548,-59.95377417
B1A,B1A6G8,Glace Bay,NS,Urban,46.19971471,-59.98537217
B1A,B1A6G9,Glace Bay,NS,Urban,46.193549,-59.983001
B1A,B1A6H1,Glace Bay,NS,Urban,46.190396,-59.946797
B1A,B1A6H2,Glace Bay,NS,Urban,46.185745,-59.973536
B1A,B1A6H3,Glace Bay,NS,Urban,46.212045,-59.962009
B1A,B1A6H4,Glace Bay,NS,Urban,46.20129794,-59.958277
B1A,B1A6H5,Glace Bay,NS,Urban,46.192138,-59.950734
B1A,B1A6H6,Glace Bay,NS,Urban,46.190933,-59.96397
B1A,B1A6H7,Glace Bay,NS,Urban,46.19021395,-60.05134855
B1A,B1A6H8,Glace Bay,NS,Urban,46.21078795,-59.98736723
B1A,B1A6H9,Glace Bay,NS,Urban,46.19355353,-59.94383591
B1A,B1A6J1,Glace Bay,NS,Urban,46.21409,-59.957992
B1A,B1A6J2,Glace Bay,NS,Urban,46.18972535,-59.94868318
B1A,B1A6J3,Glace Bay,NS,Urban,46.196686,-59.95837
B1A,B1A6J4,Glace Bay,NS,Urban,46.21228885,-59.97951717
B1A,B1A6J5,Glace Bay,NS,Urban,46.198011,-59.961508
B1A,B1A6J6,Glace Bay,NS,Urban,46.200839,-59.96508
B1A,B1A6J7,Glace Bay,NS,Urban,46.20591016,-59.956967
B1A,B1A6J8,Glace Bay,NS,Urban,46.1904984,-59.98108292
B1A,B1A6J9,Glace Bay,NS,Urban,46.179449,-59.94768
B1A,B1A6K1,Glace Bay,NS,Urban,46.20405795,-59.96806734
B1A,B1A6K2,Glace Bay,NS,Urban,46.19854638,-59.97570418
B1A,B1A6K3,Glace Bay,NS,Urban,46.21743014,-59.97177648
B1A,B1A6K4,Glace Bay,NS,Urban,46.18813828,-59.96926006
B1A,B1A6K5,Glace Bay,NS,Urban,46.17870057,-59.96493195
B1A,B1A6K6,Glace Bay,NS,Urban,46.1787033,-59.96500012
B1A,B1A6K7,Glace Bay,NS,Urban,46.203204,-59.951907
B1A,B1A6K8,Glace Bay,NS,Urban,46.18512797,-59.96055627
B1A,B1A6K9,Glace Bay,NS,Urban,46.18472842,-59.95993456
B1A,B1A6L1,Glace Bay,NS,Urban,46.198416,-59.996342
B1A,B1A6L2,Glace Bay,NS,Urban,46.19324383,-59.94994247
B1A,B1A6L3,Glace Bay,NS,Urban,46.19307147,-59.94977799
B1A,B1A6L4,Glace Bay,NS,Urban,46.19024355,-59.95396963
B1A,B1A6L5,Glace Bay,NS,Urban,46.206462,-59.988823
B1A,B1A6L6,Glace Bay,NS,Urban,46.19014308,-59.96551692
B1A,B1A6L7,Glace Bay,NS,Urban,46.20528,-59.951633
B1A,B1A6L8,Glace Bay,NS,Urban,46.178125,-59.969475
B1A,B1A6L9,Glace Bay,NS,Urban,46.187789,-59.951678
B1A,B1A6M1,Glace Bay,NS,Urban,46.18906,-59.947651
B1A,B1A6M2,Glace Bay,NS,Urban,46.18946423,-59.9481059
B1A,B1A6M3,Glace Bay,NS,Urban,46.189363,-59.947072
B1A,B1A6M5,Glace Bay,NS,Urban,46.231913,-60.130799
B1A,B1A6M6,Glace Bay,NS,Urban,46.253584,-60.080977
B1A,B1A6M7,Donkin,NS,Urban,46.18310148,-59.86727873
B1A,B1A6M8,Donkin,NS,Urban,46.1831339,-59.8672566
B1A,B1A6M9,Donkin,NS,Urban,46.1873821,-59.8693008
B1A,B1A6N1,Donkin,NS,Urban,46.213907,-59.961431
B1A,B1A6N2,Donkin,NS,Urban,46.18572314,-59.87109847
B1A,B1A6N3,Donkin,NS,Urban,46.19298607,-59.89522939
B1A,B1A6N4,Donkin,NS,Urban,46.21511009,-59.96258477
B1A,B1A6N5,Donkin,NS,Urban,46.185655,-59.872934
B1A,B1A6N6,Donkin,NS,Urban,46.185655,-59.872934
B1A,B1A6N7,Donkin,NS,Urban,46.18156179,-59.87680235
B1A,B1A6N8,Donkin,NS,Urban,46.18155145,-59.87549825
B1A,B1A6N9,Donkin,NS,Urban,46.18190444,-59.86776654
B1A,B1A6P1,Donkin,NS,Urban,46.18194566,-59.86923433
B1A,B1A6P2,Donkin,NS,Urban,46.18191723,-59.86789887
B1A,B1A6P3,Donkin,NS,Urban,46.18153587,-59.85725846
B1A,B1A6P4,Donkin,NS,Urban,46.18150494,-59.85539339
B1A,B1A6P5,Donkin,NS,Urban,46.18555,-59.868975
B1A,B1A6P6,Donkin,NS,Urban,46.18552,-59.868837
B1A,B1A6P7,Donkin,NS,Urban,46.18538845,-59.86923131
B1A,B1A6P8,Donkin,NS,Urban,46.17588,-59.849958
B1A,B1A6P9,Donkin,NS,Urban,46.17588,-59.849958
B1A,B1A6R1,Donkin,NS,Urban,46.18564701,-59.86704809
B1A,B1A6R2,Donkin,NS,Urban,46.18610069,-59.86989906
B1A,B1A6R3,Donkin,NS,Urban,46.18611959,-59.8701444
B1A,B1A6R4,Donkin,NS,Urban,46.18624546,-59.87182752
B1A,B1A6R5,Glace Bay,NS,Urban,46.1878509,-59.94338269
B1A,B1A6R6,Donkin,NS,Urban,46.18540969,-59.87410096
B1A,B1A6R7,Donkin,NS,Urban,46.18537042,-59.87411603
B1A,B1A6R8,Donkin,NS,Urban,46.18203,-59.876597
B1A,B1A6R9,Donkin,NS,Urban,46.181997,-59.876611
B1A,B1A6S1,Donkin,NS,Urban,46.185316,-59.875155
B1A,B1A6S2,Donkin,NS,Urban,46.185565,-59.875046
B1A,B1A6S3,Donkin,NS,Urban,46.1856,-59.875031
B1A,B1A6S4,Donkin,NS,Urban,46.18567046,-59.8711836
B1A,B1A6S5,Donkin,NS,Urban,46.18561285,-59.87119912
B1A,B1A6S6,Donkin,NS,Urban,46.18469438,-59.87147127
B1A,B1A6S7,Donkin,NS,Urban,46.1844829,-59.87153297
B1A,B1A6S8,Donkin,NS,Urban,46.186035,-59.939327
B1A,B1A6S9,Donkin,NS,Urban,46.186035,-59.939327
B1A,B1A6T1,Donkin,NS,Urban,46.191797,-59.949967
B1A,B1A6T2,Donkin,NS,Urban,46.186335,-59.878461
B1A,B1A6T3,Donkin,NS,Urban,46.186335,-59.878461
B1A,B1A6T4,Donkin,NS,Urban,46.186335,-59.878461
B1A,B1A6T5,Donkin,NS,Urban,46.18086677,-59.87368816
B1A,B1A6T6,Donkin,NS,Urban,46.190232,-59.945793
B1A,B1A6T7,Donkin,NS,Urban,46.186335,-59.878461
B1A,B1A6T8,Port Caledonia,NS,Urban,46.1744312,-59.91593286
B1A,B1A6T9,Port Caledonia,NS,Urban,46.17429313,-59.91578802
B1A,B1A6V1,Port Caledonia,NS,Urban,46.17348448,-59.91493965
B1A,B1A6V2,Port Caledonia,NS,Urban,46.16740288,-59.9109494
B1A,B1A6V3,Port Caledonia,NS,Urban,46.16877018,-59.92192335
B1A,B1A6V4,Port Caledonia,NS,Urban,46.17494416,-59.91417204
B1A,B1A6V5,Port Caledonia,NS,Urban,46.1751098,-59.91388626
B1A,B1A6V6,Port Caledonia,NS,Urban,46.176887,-59.909888
B1A,B1A6V7,Port Caledonia,NS,Urban,46.17768394,-59.91021194
B1A,B1A6V8,Port Caledonia,NS,Urban,46.1783806,-59.90965566
B1A,B1A6V9,Port Caledonia,NS,Urban,46.18234114,-59.9009737
B1A,B1A6W1,Port Caledonia,NS,Urban,46.175782,-59.912726
B1A,B1A6W2,Port Caledonia,NS,Urban,46.175782,-59.912726
B1A,B1A6W3,Port Caledonia,NS,Urban,46.175782,-59.912726
B1A,B1A6W4,Port Caledonia,NS,Urban,46.109664,-59.976193
B1A,B1A6W5,Port Caledonia,NS,Urban,46.109665,-59.976193
B1A,B1A6W6,Port Caledonia,NS,Urban,46.175782,-59.912726
B1A,B1A6W7,Port Caledonia,NS,Urban,46.175782,-59.912726
B1A,B1A6W8,Glace Bay,NS,Urban,46.181059,-59.887968
B1A,B1A6W9,Glace Bay,NS,Urban,46.181649,-59.88803
B1A,B1A6X1,Port Caledonia,NS,Urban,46.175782,-59.912726
B1A,B1A6X2,Donkin,NS,Urban,46.181934,-59.868075
B1A,B1A6X3,Donkin,NS,Urban,46.181934,-59.868075
B1A,B1A6X4,Donkin,NS,Urban,46.18161474,-59.88396385
B1A,B1A6X5,Donkin,NS,Urban,46.18240831,-59.88374206
B1A,B1A6X6,Donkin,NS,Urban,46.18210417,-59.87550328
B1A,B1A6X7,Donkin,NS,Urban,46.18192052,-59.87557334
B1A,B1A6X8,Glace Bay,NS,Urban,46.169366,-59.962348
B1A,B1A6X9,Donkin,NS,Urban,46.18633457,-59.87846089
B1A,B1A6Y1,Glace Bay,NS,Urban,46.200402,-59.983626
B1A,B1A6Y2,Donkin,NS,Urban,46.21459493,-59.96210323
B1A,B1A6Y3,Port Caledonia,NS,Urban,46.16871463,-59.92205572
B1A,B1A6Y4,Donkin,NS,Urban,46.153619,-59.832646
B1A,B1A6Y5,Donkin,NS,Urban,46.1816013,-59.87308641
B1A,B1A6Y6,Glace Bay,NS,Urban,46.216297,-59.960555
B1A,B1A6Y7,Glace Bay,NS,Urban,46.084252,-60.108202
B1A,B1A6Y8,Glace Bay,NS,Urban,46.20374,-59.967693
B1A,B1A6Y9,Glace Bay,NS,Urban,46.19549928,-59.94862074
B1A,B1A6Z1,Glace Bay,NS,Urban,46.19551362,-59.94864334
B1A,B1A7L3,Sidney,NS,Urban,46.084252,-60.108202
B1B,B1B1A1,Port Morien,NS,Urban,46.13650959,-59.87161617
B1B,B1B1A2,Port Morien,NS,Urban,46.13407957,-59.87165056
B1B,B1B1A3,Port Morien,NS,Urban,46.137232,-59.87831
B1B,B1B1A4,Port Morien,NS,Urban,46.137232,-59.87831
B1B,B1B1A5,Port Morien,NS,Urban,46.13509,-59.873801
B1B,B1B1A6,Port Morien,NS,Urban,46.134858,-59.873312
B1B,B1B1A7,Port Morien,NS,Urban,46.13266881,-59.87080178
B1B,B1B1A8,Port Morien,NS,Urban,46.13332639,-59.87213283
B1B,B1B1A9,Port Morien,NS,Urban,46.13401149,-59.87360157
B1B,B1B1B1,Port Morien,NS,Urban,46.13398813,-59.87354614
B1B,B1B1B2,Port Morien,NS,Urban,46.13519657,-59.87282598
B1B,B1B1B3,Port Morien,NS,Urban,46.13512018,-59.87103219
B1B,B1B1B4,Port Morien,NS,Urban,46.135102,-59.870985
B1B,B1B1B5,Port Morien,NS,Urban,46.13559552,-59.87217249
B1B,B1B1B6,Port Morien,NS,Urban,46.13601068,-59.87299905
B1B,B1B1B7,Port Morien,NS,Urban,46.13630184,-59.87355882
B1B,B1B1B8,Port Morien,NS,Urban,46.13256382,-59.87425982
B1B,B1B1B9,Port Morien,NS,Urban,46.13297173,-59.87477167
B1B,B1B1C1,Port Morien,NS,Urban,46.13534,-59.871596
B1B,B1B1C2,Port Morien,NS,Urban,46.13534,-59.871596
B1B,B1B1C3,Port Morien,NS,Urban,46.13791206,-59.87099086
B1B,B1B1C4,Port Morien,NS,Urban,46.13644847,-59.87082507
B1B,B1B1C5,Port Morien,NS,Urban,46.13513977,-59.87176398
B1B,B1B1C6,Port Morien,NS,Urban,46.13508971,-59.87180596
B1B,B1B1C7,Port Morien,NS,Urban,46.13448901,-59.87230984
B1B,B1B1C8,Port Morien,NS,Urban,46.13443895,-59.87235183
B1B,B1B1C9,Port Morien,NS,Urban,46.13331008,-59.87333741
B1B,B1B1E1,Port Morien,NS,Urban,46.13335219,-59.87329731
B1B,B1B1E2,Port Morien,NS,Urban,46.13224716,-59.87438834
B1B,B1B1E3,Port Morien,NS,Urban,46.13330258,-59.87208556
B1B,B1B1E4,Port Morien,NS,Urban,46.13350582,-59.87186134
B1B,B1B1E5,Port Morien,NS,Urban,46.13421321,-59.87115363
B1B,B1B1E6,Port Morien,NS,Urban,46.145213,-59.866593
B1B,B1B1E7,Port Morien,NS,Urban,46.145213,-59.866593
B1B,B1B1E8,Port Morien,NS,Urban,46.145213,-59.866593
B1B,B1B1E9,Port Morien,NS,Urban,46.152241,-59.86187
B1B,B1B1G1,Port Morien,NS,Urban,46.152122,-59.861625
B1B,B1B1G2,Port Morien,NS,Urban,46.145213,-59.866593
B1B,B1B1G3,Port Morien,NS,Urban,46.145213,-59.866593
B1B,B1B1G4,Port Morien,NS,Urban,46.1595785,-59.85968377
B1B,B1B1G5,Port Morien,NS,Urban,46.145213,-59.866593
B1B,B1B1G6,Port Morien,NS,Urban,46.145213,-59.866593
B1B,B1B1G7,Port Morien,NS,Urban,46.13167574,-59.87518522
B1B,B1B1G8,Port Morien,NS,Urban,46.13179367,-59.87751315
B1B,B1B1G9,Port Morien,NS,Urban,46.13149573,-59.87814631
B1B,B1B1H1,Port Morien,NS,Urban,46.13134341,-59.87816785
B1B,B1B1H2,Port Morien,NS,Urban,46.12970709,-59.88326458
B1B,B1B1H3,Port Morien,NS,Urban,46.13147776,-59.87900872
B1B,B1B1H4,Port Morien,NS,Urban,46.12769314,-59.88968071
B1B,B1B1H5,Port Morien,NS,Urban,46.12869585,-59.89098589
B1B,B1B1H6,Port Morien,NS,Urban,46.1286729,-59.89711379
B1B,B1B1H7,Port Morien,NS,Urban,46.12736686,-59.90177082
B1B,B1B1H8,Port Morien,NS,Urban,46.12546707,-59.9010466
B1B,B1B1H9,Port Morien,NS,Urban,46.12930162,-59.90378551
B1B,B1B1J1,Port Morien,NS,Urban,46.1298201,-59.9046564
B1B,B1B1J2,Port Morien,NS,Urban,46.12877442,-59.91015044
B1B,B1B1J3,Port Morien,NS,Urban,46.129238,-59.90959651
B1B,B1B1J5,Glace Bay,NS,Urban,46.15863,-59.939308
B1B,B1B1J6,Glace Bay,NS,Urban,46.156289,-59.937657
B1B,B1B1J7,Birch Grove,NS,Urban,46.1220918,-59.94865725
B1B,B1B1J8,Birch Grove,NS,Urban,46.12268238,-59.93348886
B1B,B1B1J9,Birch Grove,NS,Urban,45.92087,-59.975875
B1B,B1B1K1,Birch Grove,NS,Urban,46.12210003,-59.94860819
B1B,B1B1K2,Birch Grove,NS,Urban,45.920871,-59.975875
B1B,B1B1K3,Birch Grove,NS,Urban,45.920872,-59.975875
B1B,B1B1K4,Birch Grove,NS,Urban,46.12183,-59.951611
B1B,B1B1K5,Birch Grove,NS,Urban,46.21402503,-59.96486011
B1B,B1B1K6,Birch Grove,NS,Urban,46.12181337,-59.95201749
B1B,B1B1K7,Birch Grove,NS,Urban,46.121785,-59.952772
B1B,B1B1K8,Birch Grove,NS,Urban,46.121785,-59.952772
B1B,B1B1K9,Birch Grove,NS,Urban,46.12248804,-59.95394184
B1B,B1B1L1,Birch Grove,NS,Urban,46.12245115,-59.95393588
B1B,B1B1L2,Birch Grove,NS,Urban,46.121598,-59.954794
B1B,B1B1L3,Birch Grove,NS,Urban,46.121598,-59.954794
B1B,B1B1L4,Birch Grove,NS,Urban,46.211656,-59.96249
B1B,B1B1L5,Birch Grove,NS,Urban,46.211656,-59.96249
B1B,B1B1L6,Birch Grove,NS,Urban,46.122262,-59.956782
B1B,B1B1L7,Birch Grove,NS,Urban,46.122294,-59.956784
B1B,B1B1L8,Birch Grove,NS,Urban,46.1227465,-59.95284943
B1B,B1B1L9,Birch Grove,NS,Urban,46.12173501,-59.95350338
B1B,B1B1M1,Birch Grove,NS,Urban,46.12122045,-59.95754303
B1B,B1B1M2,Birch Grove,NS,Urban,46.1283904,-59.9632395
B1B,B1B1M3,Birch Grove,NS,Urban,46.12317107,-59.96332921
B1B,B1B1M4,Birch Grove,NS,Urban,46.12450152,-59.96349202
B1B,B1B1M5,Birch Grove,NS,Urban,46.121499,-59.963125
B1B,B1B1M6,Birch Grove,NS,Urban,46.121499,-59.963125
B1B,B1B1M7,Birch Grove,NS,Urban,46.121499,-59.963125
B1B,B1B1M8,Birch Grove,NS,Urban,46.121499,-59.963125
B1B,B1B1M9,Birch Grove,NS,Urban,46.121499,-59.963125
B1B,B1B1N1,Birch Grove,NS,Urban,45.920877,-59.975875
B1B,B1B1N2,Homeville,NS,Urban,46.092566,-59.983023
B1B,B1B1N3,Homeville,NS,Urban,46.084682,-59.97644
B1B,B1B1N4,Homeville,NS,Urban,46.080001,-59.960682
B1B,B1B1N5,Mira,NS,Urban,46.054525,-59.996772
B1B,B1B1N6,Mira,NS,Urban,46.052841,-59.998541
B1B,B1B1N7,Mira,NS,Urban,46.054399,-59.996876
B1B,B1B1N8,Mira,NS,Urban,46.053972,-59.997232
B1B,B1B1N9,Mira,NS,Urban,46.052718,-59.998765
B1B,B1B1P1,Round Island,NS,Urban,45.920886,-59.975875
B1B,B1B1P2,Round Island,NS,Urban,45.920887,-59.975875
B1B,B1B1P3,Round Island,NS,Urban,45.920888,-59.975875
B1B,B1B1P4,Round Island,NS,Urban,45.920889,-59.975875
B1B,B1B1P5,Round Island,NS,Urban,45.92089,-59.975875
B1B,B1B1P6,Round Island,NS,Urban,45.920891,-59.975875
B1B,B1B1P7,Round Island,NS,Urban,45.920892,-59.975875
B1B,B1B1P8,Round Island,NS,Urban,45.920893,-59.975875
B1B,B1B1P9,Round Island,NS,Urban,45.920894,-59.975875
B1B,B1B1R1,Round Island,NS,Urban,45.920895,-59.975875
B1B,B1B1R2,Round Island,NS,Urban,45.920896,-59.975875
B1B,B1B1R3,Round Island,NS,Urban,45.920897,-59.975875
B1B,B1B1R4,Homeville,NS,Urban,46.073907,-59.899856
B1B,B1B1R5,Homeville,NS,Urban,46.083605,-59.898347
B1B,B1B1R6,Homeville,NS,Urban,46.082944,-59.896089
B1B,B1B1R7,Homeville,NS,Urban,46.083997,-59.898306
B1B,B1B1R8,Homeville,NS,Urban,46.082632,-59.884925
B1B,B1B1R9,South Head,NS,Urban,45.920903,-59.975875
B1B,B1B1S1,South Head,NS,Urban,45.920904,-59.975875
B1B,B1B1S2,South Head,NS,Urban,45.920905,-59.975875
B1B,B1B1S3,South Head,NS,Urban,45.920906,-59.975875
B1B,B1B1S4,South Head,NS,Urban,45.920907,-59.975875
B1B,B1B1S5,South Head,NS,Urban,45.920908,-59.975875
B1B,B1B1S6,South Head,NS,Urban,45.920909,-59.975875
B1B,B1B1S7,South Head,NS,Urban,45.92091,-59.975875
B1B,B1B1S8,South Head,NS,Urban,45.920911,-59.975875
B1B,B1B1S9,South Head,NS,Urban,45.920912,-59.975875
B1B,B1B1T1,Homeville,NS,Urban,46.093082,-59.902165
B1B,B1B1T2,Homeville,NS,Urban,46.096777,-59.905404
B1B,B1B1T3,Homeville,NS,Urban,46.103182,-59.908656
B1B,B1B1T4,Homeville,NS,Urban,46.09823,-59.89889
B1B,B1B1T5,Homeville,NS,Urban,46.105691,-59.9088
B1B,B1B1T6,Black Brook,NS,Urban,45.920917,-59.975875
B1B,B1B1T7,Black Brook,NS,Urban,45.920918,-59.975875
B1B,B1B1T8,Black Brook,NS,Urban,45.920919,-59.975875
B1B,B1B1T9,Port Morien,NS,Urban,46.12202065,-59.88467646
B1B,B1B1V1,Port Morien,NS,Urban,46.12227762,-59.88433985
B1B,B1B1V2,Port Morien,NS,Urban,46.13083048,-59.87574541
B1B,B1B1V3,Port Morien,NS,Urban,46.1239266,-59.8819309
B1B,B1B1V4,Port Morien,NS,Urban,46.12374222,-59.88171377
B1B,B1B1V5,Port Morien,NS,Urban,46.12418903,-59.87986904
B1B,B1B1V6,Port Morien,NS,Urban,46.12833703,-59.87705811
B1B,B1B1V7,Port Morien,NS,Urban,46.12859161,-59.87782423
B1B,B1B1V8,Port Morien,NS,Urban,46.1294031,-59.87624898
B1B,B1B1V9,Port Morien,NS,Urban,46.13111413,-59.87551052
B1B,B1B1W1,Tower Road,NS,Urban,46.107373,-60.316246
B1B,B1B1W2,Glace Bay,NS,Urban,46.156202,-59.946189
B1B,B1B1W3,Tower Road,NS,Urban,46.140821,-59.94685
B1B,B1B1W4,Tower Road,NS,Urban,46.140822,-59.94685
B1B,B1B1W5,Glace Bay,NS,Urban,46.150884,-59.962242
B1B,B1B1W6,Glace Bay,NS,Urban,46.152662,-59.957532
B1B,B1B1W7,Tower Road,NS,Urban,46.151777,-59.961998
B1B,B1B1W8,Glace Bay,NS,Urban,46.152524,-59.964649
B1B,B1B1W9,Glace Bay,NS,Urban,46.152823,-59.961591
B1B,B1B1X1,Tower Road,NS,Urban,46.151778,-59.961998
B1B,B1B1X2,Tower Road,NS,Urban,46.151779,-59.961998
B1B,B1B1X3,Glace Bay,NS,Urban,46.154243,-59.960466
B1B,B1B1X4,Glace Bay,NS,Urban,46.161284,-59.962068
B1B,B1B1X5,Tower Road,NS,Urban,46.151781,-59.961998
B1B,B1B1X6,Glace Bay,NS,Urban,46.161334,-59.962109
B1B,B1B1X7,Port Caledonia,NS,Urban,46.166622,-59.967518
B1B,B1B1X8,Tower Road,NS,Urban,46.14978,-59.906149
B1B,B1B1X9,Tower Road,NS,Urban,46.149781,-59.906149
B1B,B1B1Y1,Tower Road,NS,Urban,46.149782,-59.906149
B1B,B1B1Y3,Tower Road,NS,Urban,46.191938,-59.953256
B1B,B1B1Y4,Birch Grove,NS,Urban,46.191939,-59.953256
B1B,B1B1Y5,Port Morien,NS,Urban,46.13241762,-59.87059006
B1B,B1B1Y6,Port Morien,NS,Urban,46.148471,-59.905803
B1B,B1B2B2,Cow Bay,NS,Urban,46.123645,-59.93273
B1B,B1B3M1,Cape Breton,NS,Urban,46.136714,-60.134906
B1C,B1C0A1,Louisbourg Road,NS,Urban,45.958365,-59.991704
B1C,B1C0A2,NA,NS,Urban,45.972104,-59.9508481
B1C,B1C1A1,Louisbourg,NS,Urban,45.919532,-59.971617
B1C,B1C1A2,Louisbourg,NS,Urban,45.919651,-59.971659
B1C,B1C1A3,Louisbourg,NS,Urban,45.92370673,-59.96838283
B1C,B1C1A4,Louisbourg,NS,Urban,45.92364885,-59.96835878
B1C,B1C1A5,Louisbourg,NS,Urban,45.918804,-59.97427
B1C,B1C1A6,Louisbourg,NS,Urban,45.918748,-59.974247
B1C,B1C1A7,Louisbourg,NS,Urban,46.11038804,-60.22053112
B1C,B1C1A8,Louisbourg,NS,Urban,45.92356459,-59.96484671
B1C,B1C1A9,Louisbourg,NS,Urban,45.918937,-59.973617
B1C,B1C1B1,Louisbourg,NS,Urban,45.92453808,-59.96466726
B1C,B1C1B2,Louisbourg,NS,Urban,45.92157738,-59.97024059
B1C,B1C1B3,Louisbourg,NS,Urban,45.92161213,-59.97026515
B1C,B1C1B4,Louisbourg,NS,Urban,45.923476,-59.964292
B1C,B1C1B5,Louisbourg,NS,Urban,45.91905461,-59.97144562
B1C,B1C1B6,Louisbourg,NS,Urban,45.91864669,-59.97224918
B1C,B1C1B7,Catalone,NS,Urban,45.981258,-59.874014
B1C,B1C1B8,Louisbourg,NS,Urban,45.91790561,-59.97421674
B1C,B1C1B9,Louisbourg,NS,Urban,45.91927622,-59.97607918
B1C,B1C1C1,Louisbourg,NS,Urban,45.91934229,-59.97610565
B1C,B1C1C2,Louisbourg,NS,Urban,45.92235435,-59.96914089
B1C,B1C1C3,Louisbourg,NS,Urban,45.92302738,-59.96925169
B1C,B1C1C4,Louisbourg,NS,Urban,45.92037,-59.97044
B1C,B1C1C5,Louisbourg,NS,Urban,45.920371,-59.97044
B1C,B1C1C6,Louisbourg,NS,Urban,45.92159463,-59.97172321
B1C,B1C1C7,Louisbourg,NS,Urban,45.92257914,-59.97110324
B1C,B1C1C8,Louisbourg,NS,Urban,45.9233363,-59.97051363
B1C,B1C1C9,Louisbourg,NS,Urban,45.92409927,-59.96828659
B1C,B1C1E1,Louisbourg,NS,Urban,45.92432554,-59.96708416
B1C,B1C1E2,Louisbourg,NS,Urban,45.92435059,-59.96696349
B1C,B1C1E3,Louisbourg,NS,Urban,45.92437922,-59.96682558
B1C,B1C1E4,Louisbourg,NS,Urban,45.924536,-59.968555
B1C,B1C1E5,Louisbourg,NS,Urban,45.92091315,-59.97109623
B1C,B1C1E6,Louisbourg,NS,Urban,45.92150811,-59.97134977
B1C,B1C1E7,Louisbourg,NS,Urban,45.92178164,-59.97146633
B1C,B1C1E8,Louisbourg,NS,Urban,45.92272261,-59.97230581
B1C,B1C1E9,Louisbourg,NS,Urban,45.92223752,-59.97166061
B1C,B1C1G1,Louisbourg,NS,Urban,45.92576039,-59.97109455
B1C,B1C1G2,Louisbourg,NS,Urban,45.92326975,-59.97203197
B1C,B1C1G3,Louisbourg,NS,Urban,45.92341033,-59.96730134
B1C,B1C1G4,Louisbourg,NS,Urban,45.92344357,-59.96727279
B1C,B1C1G5,Louisbourg,NS,Urban,45.91960115,-59.97270743
B1C,B1C1G6,Louisbourg,NS,Urban,45.91909208,-59.972463
B1C,B1C1G7,Louisbourg,NS,Urban,45.91921934,-59.9725241
B1C,B1C1G8,Louisbourg,NS,Urban,45.91864,-59.97224
B1C,B1C1G9,Louisbourg,NS,Urban,45.923209,-59.964554
B1C,B1C1H1,Louisbourg,NS,Urban,45.92326953,-59.96477078
B1C,B1C1H2,Louisbourg,NS,Urban,45.92312244,-59.96570566
B1C,B1C1H3,Louisbourg,NS,Urban,45.92268604,-59.96813341
B1C,B1C1H4,Louisbourg,NS,Urban,45.92279633,-59.96787156
B1C,B1C1H5,Louisbourg,NS,Urban,45.9222055,-59.96892888
B1C,B1C1H6,Louisbourg,NS,Urban,45.92163924,-59.96989251
B1C,B1C1H7,Louisbourg,NS,Urban,45.92212177,-59.96906742
B1C,B1C1H8,Louisbourg,NS,Urban,45.921024,-59.970674
B1C,B1C1H9,Louisbourg,NS,Urban,45.92147314,-59.97016691
B1C,B1C1J1,Louisbourg,NS,Urban,45.92036553,-59.97191546
B1C,B1C1J2,Louisbourg,NS,Urban,45.92059927,-59.97157975
B1C,B1C1J3,Louisbourg,NS,Urban,45.9203018,-59.97202974
B1C,B1C1J4,Louisbourg,NS,Urban,45.91985569,-59.97282965
B1C,B1C1J5,Louisbourg,NS,Urban,45.91936251,-59.97384883
B1C,B1C1J6,Louisbourg,NS,Urban,45.91920188,-59.97443256
B1C,B1C1J7,Louisbourg,NS,Urban,45.918927,-59.975656
B1C,B1C1J8,Louisbourg,NS,Urban,45.9188798,-59.97592037
B1C,B1C1J9,Louisbourg,NS,Urban,45.91870105,-59.9768471
B1C,B1C1K1,Louisbourg,NS,Urban,45.91886123,-59.97602442
B1C,B1C1K2,Louisbourg,NS,Urban,45.92449116,-59.96879353
B1C,B1C1K3,Louisbourg,NS,Urban,45.924769,-59.968963
B1C,B1C1K4,Louisbourg,NS,Urban,45.92296363,-59.96713332
B1C,B1C1K5,Louisbourg,NS,Urban,45.92269105,-59.96705859
B1C,B1C1K6,Louisbourg,NS,Urban,45.92204097,-59.96990883
B1C,B1C1K7,Louisbourg,NS,Urban,45.92162358,-59.96991917
B1C,B1C1K8,Louisbourg,NS,Urban,46.128525,-60.18415
B1C,B1C1K9,Louisbourg,NS,Urban,46.128362,-60.184002
B1C,B1C1L1,Louisbourg,NS,Urban,45.92057,-59.96847
B1C,B1C1L2,Louisbourg,NS,Urban,45.916964,-59.96711
B1C,B1C1L3,Louisbourg,NS,Urban,45.921244,-59.969781
B1C,B1C1L4,Louisbourg,NS,Urban,45.920604,-59.97032
B1C,B1C1L5,Louisbourg,NS,Urban,45.92010496,-59.97479193
B1C,B1C1L6,Louisbourg,NS,Urban,45.91992434,-59.97472006
B1C,B1C1L7,Louisbourg,NS,Urban,45.92321993,-59.96574892
B1C,B1C1L8,Louisbourg,NS,Urban,45.92484897,-59.96726772
B1C,B1C1L9,Louisbourg,NS,Urban,45.92517712,-59.96738278
B1C,B1C1M1,Louisbourg,NS,Urban,45.9200516,-59.97720025
B1C,B1C1M2,Louisbourg,NS,Urban,45.91816703,-59.97541431
B1C,B1C1M3,Louisbourg,NS,Urban,45.91791371,-59.97533379
B1C,B1C1M4,Louisbourg,NS,Urban,45.92327715,-59.97186327
B1C,B1C1M5,Louisbourg,NS,Urban,45.92093308,-59.97316713
B1C,B1C1M6,Louisbourg,NS,Urban,45.92109,-59.97321
B1C,B1C1M7,Louisbourg,NS,Urban,45.9210967,-59.97321841
B1C,B1C1M8,Louisbourg,NS,Urban,45.92109,-59.97321
B1C,B1C1M9,Louisbourg,NS,Urban,45.92109,-59.97321
B1C,B1C1N1,Louisbourg,NS,Urban,45.92122491,-59.97241353
B1C,B1C1N2,Louisbourg,NS,Urban,45.92124736,-59.97235556
B1C,B1C1N3,Louisbourg,NS,Urban,45.91838125,-59.97294376
B1C,B1C1N4,Louisbourg,NS,Urban,45.92347732,-59.96421693
B1C,B1C1N5,Louisbourg,NS,Urban,45.92347466,-59.96414194
B1C,B1C1N6,Louisbourg,NS,Urban,45.92349673,-59.95849582
B1C,B1C1N7,Louisbourg,NS,Urban,45.92330192,-59.95874679
B1C,B1C1N8,Louisbourg,NS,Urban,45.92340597,-59.95812312
B1C,B1C1N9,Louisbourg,NS,Urban,45.92274415,-59.95890042
B1C,B1C1P1,Louisbourg,NS,Urban,45.9216814,-59.95874844
B1C,B1C1P2,Louisbourg,NS,Urban,45.91833985,-59.96092194
B1C,B1C1P3,Louisbourg,NS,Urban,45.91863348,-59.96108433
B1C,B1C1P4,Louisbourg,NS,Urban,45.91777,-59.95991
B1C,B1C1P5,Louisbourg,NS,Urban,45.92697395,-59.95989005
B1C,B1C1P6,Louisbourg,NS,Urban,45.92744651,-59.95924773
B1C,B1C1P7,Louisbourg,NS,Urban,45.9255835,-59.96231461
B1C,B1C1P8,Louisbourg,NS,Urban,45.9284869,-59.95782323
B1C,B1C1P9,Louisbourg,NS,Urban,45.92741183,-59.95929521
B1C,B1C1R1,Louisbourg,NS,Urban,45.929837,-59.951792
B1C,B1C1R2,Louisbourg,NS,Urban,45.933656,-59.934359
B1C,B1C1R3,Little Lorraine,NS,Urban,46.181126,-60.015036
B1C,B1C1R4,Louisbourg,NS,Urban,45.928317,-59.933674
B1C,B1C1R5,Louisbourg,NS,Urban,45.92935389,-59.95663614
B1C,B1C1R6,Louisbourg,NS,Urban,45.934248,-59.948535
B1C,B1C1R7,Louisbourg,NS,Urban,45.926374,-59.960687
B1C,B1C1R8,Louisbourg,NS,Urban,45.926375,-59.960687
B1C,B1C1R9,Catalone,NS,Urban,45.9836675,-59.9840129
B1C,B1C1S1,Catalone,NS,Urban,45.98151648,-59.98272403
B1C,B1C1S2,Catalone,NS,Urban,45.98373409,-59.98409851
B1C,B1C1S3,Catalone,NS,Urban,45.98227564,-59.98292737
B1C,B1C1S4,Catalone,NS,Urban,45.984303,-59.982967
B1C,B1C1S5,Catalone,NS,Urban,45.983859,-59.984239
B1C,B1C1S6,Catalone,NS,Urban,45.984568,-59.980153
B1C,B1C1S7,Catalone,NS,Urban,45.984074,-59.983995
B1C,B1C1S9,Catalone,NS,Urban,45.988186,-59.96913
B1C,B1C1T1,Mira,NS,Urban,45.985309,-59.966967
B1C,B1C1T2,Catalone,NS,Urban,45.988187,-59.96913
B1C,B1C1T3,Catalone,NS,Urban,45.988188,-59.96913
B1C,B1C1T4,Mira,NS,Urban,45.983263,-59.962677
B1C,B1C1T5,Mira,NS,Urban,45.984852,-59.96343
B1C,B1C1T6,Catalone,NS,Urban,45.984657,-59.979205
B1C,B1C1T7,Catalone,NS,Urban,45.984657,-59.979205
B1C,B1C1T8,Catalone,NS,Urban,45.999967,-59.9521
B1C,B1C1T9,Catalone,NS,Urban,45.992412,-59.94755
B1C,B1C1V1,Catalone,NS,Urban,45.984657,-59.979205
B1C,B1C1V2,Catalone,NS,Urban,45.984657,-59.979205
B1C,B1C1V3,Catalone,NS,Urban,45.999968,-59.9521
B1C,B1C1V4,Catalone,NS,Urban,45.999969,-59.9521
B1C,B1C1V5,Catalone,NS,Urban,45.984657,-59.979205
B1C,B1C1V6,Bateston,NS,Urban,45.978621,-59.89233
B1C,B1C1V7,Bateston,NS,Urban,46.023278,-59.90808
B1C,B1C1V8,Bateston,NS,Urban,46.005499,-59.905822
B1C,B1C1V9,Bateston,NS,Urban,46.005201,-59.907826
B1C,B1C1W1,Bateston,NS,Urban,46.00427,-59.890612
B1C,B1C1W2,Bateston,NS,Urban,46.004144,-59.890195
B1C,B1C1W3,MINDEN,NS,Urban,45.992523,-59.940719
B1C,B1C1W4,MINDEN,NS,Urban,45.992523,-59.940719
B1C,B1C1W5,MINDEN,NS,Urban,45.992523,-59.940719
B1C,B1C1W6,MINDEN,NS,Urban,45.992523,-59.940719
B1C,B1C1W7,Main-A-Dieu,NS,Urban,46.023282,-59.90808
B1C,B1C1W8,MINDEN,NS,Urban,45.992523,-59.940719
B1C,B1C1W9,Main-A-Dieu,NS,Urban,46.023284,-59.90808
B1C,B1C1X1,Main-A-Dieu,NS,Urban,46.023285,-59.90808
B1C,B1C1X2,MINDEN,NS,Urban,45.992523,-59.940719
B1C,B1C1X3,MINDEN,NS,Urban,45.992523,-59.940719
B1C,B1C1X4,MINDEN,NS,Urban,45.94649,-59.881872
B1C,B1C1X5,MINDEN,NS,Urban,45.94649,-59.881872
B1C,B1C1X6,MINDEN,NS,Urban,45.94649,-59.881872
B1C,B1C1X7,Main-A-Dieu,NS,Urban,46.200341,-60.021465
B1C,B1C1X8,Main-A-Dieu,NS,Urban,46.200342,-60.021465
B1C,B1C1X9,MINDEN,NS,Urban,45.94649,-59.881872
B1C,B1C1Y1,Main-A-Dieu,NS,Urban,46.181127,-60.015036
B1C,B1C1Y2,Main-A-Dieu,NS,Urban,46.181128,-60.015036
B1C,B1C1Y3,MINDEN,NS,Urban,45.94649,-59.881872
B1C,B1C1Y4,Main-A-Dieu,NS,Urban,46.18113,-60.015036
B1C,B1C1Y5,Main-A-Dieu,NS,Urban,46.189902,-60.013224
B1C,B1C1Y6,Main-A-Dieu,NS,Urban,46.182168,-59.895237
B1C,B1C1Y7,Main-A-Dieu,NS,Urban,46.135444,-59.99805
B1C,B1C1Y8,MINDEN,NS,Urban,45.94649,-59.881872
B1C,B1C1Y9,MINDEN,NS,Urban,45.94649,-59.881872
B1C,B1C1Z1,Main-A-Dieu,NS,Urban,46.023287,-59.90808
B1C,B1C1Z2,Main-A-Dieu,NS,Urban,46.023288,-59.90808
B1C,B1C1Z3,MINDEN,NS,Urban,45.94649,-59.881872
B1C,B1C1Z4,MINDEN,NS,Urban,45.94649,-59.881872
B1C,B1C1Z5,Main-A-Dieu,NS,Urban,46.023289,-59.90808
B1C,B1C1Z6,Main-A-Dieu,NS,Urban,46.02329,-59.90808
B1C,B1C1Z7,Little Lorraine,NS,Urban,45.957482,-59.859195
B1C,B1C1Z8,Little Lorraine,NS,Urban,45.957174,-59.859044
B1C,B1C1Z9,Little Lorraine,NS,Urban,45.9569,-59.85956
B1C,B1C2A1,Little Lorraine,NS,Urban,45.958013,-59.861628
B1C,B1C2A2,MINDEN,NS,Urban,45.958797,-59.866399
B1C,B1C2A3,MINDEN,NS,Urban,45.959044,-59.866639
B1C,B1C2A4,Little Lorraine,NS,Urban,45.958548,-59.864341
B1C,B1C2A5,Little Lorraine,NS,Urban,46.181132,-60.015036
B1C,B1C2A6,Little Lorraine,NS,Urban,46.181133,-60.015036
B1C,B1C2A7,Little Lorraine,NS,Urban,46.189904,-60.013224
B1C,B1C2A8,Bateston,NS,Urban,46.189905,-60.013224
B1C,B1C2A9,Bateston,NS,Urban,46.189906,-60.013224
B1C,B1C2B1,Bateston,NS,Urban,46.181134,-60.015036
B1C,B1C2B2,Bateston,NS,Urban,46.181135,-60.015036
B1C,B1C2B3,Catalone,NS,Urban,45.978996,-59.91049
B1C,B1C2B4,Catalone Gut,NS,Urban,46.133025,-60.185599
B1C,B1C2B5,Catalone Gut,NS,Urban,46.181136,-60.015036
B1C,B1C2B6,Catalone Gut,NS,Urban,46.181137,-60.015036
B1C,B1C2B7,Catalone Gut,NS,Urban,46.154637,-60.078645
B1C,B1C2B8,Catalone Gut,NS,Urban,46.133383,-60.190201
B1C,B1C2B9,Catalone Gut,NS,Urban,46.133384,-60.190201
B1C,B1C2C1,Catalone Gut,NS,Urban,46.133385,-60.190201
B1C,B1C2C2,Catalone Gut,NS,Urban,46.196163,-59.959817
B1C,B1C2C3,Catalone Gut,NS,Urban,46.181138,-60.015036
B1C,B1C2C4,Catalone Gut,NS,Urban,46.146535,-60.143993
B1C,B1C2C5,Catalone Gut,NS,Urban,46.181139,-60.015036
B1C,B1C2C6,Catalone Gut,NS,Urban,46.198802,-59.966549
B1C,B1C2C7,Catalone Gut,NS,Urban,46.18114,-60.015036
B1C,B1C2C8,Glace Bay,NS,Urban,46.183596,-59.944047
B1C,B1C2C9,Glace Bay,NS,Urban,46.183946,-59.943611
B1C,B1C2E1,Catalone Gut,NS,Urban,46.196164,-59.959817
B1C,B1C2E2,Catalone Gut,NS,Urban,46.196165,-59.959817
B1C,B1C2E3,Catalone,NS,Urban,45.996403,-59.99389
B1C,B1C2E4,Catalone,NS,Urban,45.99652126,-59.99695669
B1C,B1C2E5,Catalone,NS,Urban,45.99611754,-59.9955347
B1C,B1C2E6,Catalone,NS,Urban,45.985457,-59.991656
B1C,B1C2E7,Catalone,NS,Urban,45.985457,-59.991656
B1C,B1C2E8,Catalone,NS,Urban,45.99046466,-59.99093766
B1C,B1C2E9,Catalone,NS,Urban,45.98783669,-59.99546286
B1C,B1C2G1,Catalone,NS,Urban,45.98663983,-59.99651859
B1C,B1C2G2,Catalone,NS,Urban,45.98773587,-59.99563206
B1C,B1C2G3,Catalone,NS,Urban,45.98760917,-59.99584468
B1C,B1C2G4,Catalone,NS,Urban,45.98741419,-59.99503115
B1C,B1C2G5,Catalone,NS,Urban,45.98589325,-59.9928314
B1C,B1C2G6,Catalone,NS,Urban,45.98492158,-59.98759595
B1C,B1C2G7,Catalone,NS,Urban,45.98472097,-59.98740127
B1C,B1C2G8,Catalone,NS,Urban,45.98232943,-59.98835406
B1C,B1C2G9,Catalone,NS,Urban,45.98459185,-59.9871114
B1C,B1C2H1,Catalone,NS,Urban,45.98128777,-59.9892679
B1C,B1C2H2,Catalone,NS,Urban,45.98416434,-59.98728205
B1C,B1C2H3,Catalone,NS,Urban,45.96306139,-60.0022497
B1C,B1C2H4,Catalone,NS,Urban,45.9695006,-60.00815264
B1C,B1C2H5,Catalone,NS,Urban,45.95317793,-60.00411067
B1C,B1C2H6,Louisbourg,NS,Urban,45.926076,-60.000435
B1C,B1C2H7,Louisbourg,NS,Urban,45.926077,-60.000435
B1C,B1C2H8,Fortress Of Louisbourg,NS,Urban,46.181141,-60.015036
B1C,B1C2H9,Louisbourg,NS,Urban,45.91816372,-59.98043122
B1C,B1C2J1,Louisbourg,NS,Urban,45.92264461,-59.98261528
B1C,B1C2J2,Louisbourg,NS,Urban,45.91646454,-59.98103057
B1C,B1C2J3,Louisbourg,NS,Urban,45.91809196,-59.98040853
B1C,B1C2J4,Louisbourg,NS,Urban,45.91843578,-59.97280106
B1C,B1C2J5,Louisbourg,NS,Urban,45.91444456,-59.97989622
B1C,B1C2J6,Louisbourg,NS,Urban,45.91885065,-59.9718474
B1C,B1C2J7,Louisbourg,NS,Urban,45.9124677,-59.98035865
B1C,B1C2J8,Louisbourg,NS,Urban,45.91851071,-59.97781306
B1C,B1C2J9,Louisbourg,NS,Urban,45.925514,-59.96998
B1C,B1C2K1,Louisbourg,NS,Urban,45.925515,-59.96998
